brewery_name,address,categories,city,country,zip_code,state,Name,lat,long
49th State Brewing,717 W 3rd Ave,Brewery,Anchorage,US,99501,AK,Alaska,,
Arctic Brewing Supply,8401 Sandlewood Pl,"miscellaneous shop, Winemaking Equipment & Supplies, Brewer Equipment Supplies & Services, Breweries",Anchorage,US,99507,AK,Alaska,61.145509,-149.852717
Arkose Brewery Llc,650 E Steel Loop,"Brew Pubs, Brewers, Beer & Ale, Liquor Stores",Palmer,US,99645,AK,Alaska,61.581731,-149.105885
Baranof Island Brewing Company,215 Smith St,"Breweries, Food & Drink",Sitka,US,99835,AK,Alaska,57.05039,-135.30798
Bearpaw River Brewing Company,4605 E Palmer Wasilla Hwy,"Breweries, Food & Drink",Wasilla,US,99654,AK,Alaska,61.58523,-149.3367
Big Swig Tours,Undefined 4th Ave And F St,"Tours & Activities, Food & Drink, Tours, Brewery Tours, Tour",Anchorage,US,99501,AK,Alaska,61.21855,-149.8935
Brew Shop,3939 Lake St,"Winemaking Equipment & Supplies, Legal & Financial, Law Firms, Brewer Equipment Supplies & Services, lawyers, lawyer & legal services, attorney",Homer,US,99603,AK,Alaska,59.64703,-151.525711
Budget Liquor,5165 Glacier Hwy,"Food & Dining, Beverages, Breweries",Juneau,US,99801,AK,Alaska,,
Cascade Convenience Center,1211 A Smc,"Food & Dining, Beverages, Breweries, Retail Shopping, Convenience Stores",Sitka,US,99835,AK,Alaska,57.06,-135.31
Denali Winery,1301 E Dowling Rd,"Wineries, Brewers",Anchorage,US,99518,AK,Alaska,61.166945,-149.858585
Glacier Brewhouse,737 W 5th Ave (at H St),"Brewery, American Restaurant",Anchorage,US,99501,AK,Alaska,61.21773066,-149.8971176
Gold Star Liquor Store,1855 Van Horn Rd,"Retail Shopping, Convenience Stores, Shopping & Stores, Food & Dining, Beverages, Fairbanks Ak, Beverages Retail, Breweries, Alcoholic Beverages, Fairbanks Liquor Stores, Liquor Stores, Beer & Ale Retail",Fairbanks,US,99701,AK,Alaska,64.812828,-147.749164
Golden Ages,1271 9th Ave,"Fairbanks Ak, Government, Legislative Bodies, Fairbanks Government Offices-state, Food & Dining, Beverages, Breweries, Retail Shopping, Convenience Stores, places, office, state, program",Fairbanks,US,99701,AK,Alaska,64.842662,-147.741992
Homer Brewing Company,1411 Lakeshore Dr,"Travel and Tourism, Food & Drink, Breweries",Homer,US,99603,AK,Alaska,59.640095,-151.50653
Icy Strait Brewing,155,"Food & Drink, Breweries",Hoonah,US,99829,AK,Alaska,58.112988,-135.44841
Kodiak Island Brewing Company,117 Lower Mill Bay Rd,"Breweries, Food & Drink",Kodiak,US,99615,AK,Alaska,57.790543,-152.40704
La Bodega,3801 Old Seward Hwy,"Food & Dining, Beverages, Alcoholic Beverages, Retail Shopping, Convenience Stores, Breweries",Anchorage,US,99503,AK,Alaska,61.185627,-149.865829
Moose's Tooth Brewing Co.,2021 Spar Ave,"Brewers, Wineries",Anchorage,US,99501,AK,Alaska,61.222953,-149.842764
Oaken Keg,3033 Vintage Blvd,"Food & Dining, Beverages, Breweries",Juneau,US,99801,AK,Alaska,58.372976,-134.596892
Oaken Keg Spirit Shops,30 College Rd,"Food & Dining, Beverages, Breweries, Home, Fairbanks, Miscellaneous Retail, Liquor stores, Wine and beer",Fairbanks,US,99701,AK,Alaska,64.850856,-147.70459
Odom Company-west Coast Distributors,1920 Tongass Ave,"Food & Dining, Beverages, Alcoholic Beverages, Breweries, Ketchikan,  AK, Beer and Ale, Ketchikan Beer and Ale, (1)",Ketchikan,US,99901,AK,Alaska,,
Resolution Brewing Co.,3024 Mountain View Dr,Brewery,Anchorage,US,99501,AK,Alaska,,
Seward Brewing Co.,139 4th Ave,"Community, Brewery, Other Organizations",Seward,US,99664,AK,Alaska,60.10091793,-149.4407669
Silver Gulch Brewing & Bttlng,2195 Old Steese Hwy N,"Winemaking Equipment & Supplies, Pubs, Brewer Equipment Supplies & Services, Breweries",Fairbanks,US,99712,AK,Alaska,64.954628,-147.62747
Twister Creek Restaurant,13605 Main St,"American Restaurant, Brewery, Food & Dining, Beverages, Breweries, American, Burgers, Modern American, Talkeetna,  AK, Malt Beverages, Talkeetna Brewers, Brewers",Talkeetna,US,99676,AK,Alaska,62.3232467,-150.1140332
Valley Winery & Brew Supply,1705 N Ranch Rd,"Brewer Equipment Supplies & Services, Wine & Distilled Beverages Retail",Palmer,US,99645,AK,Alaska,61.597671,-149.264909
Ward Cove Deli & Liquor,7196 N Tongass Hwy 8820,"Autos, Auto Repair & Service, Automotive Oil Change, Food & Dining, Beverages, Alcoholic Beverages, Breweries, Grocery Stores, Restaurants, Delicatessens, Pizza, Retail Shopping, Convenience Stores, Ketchikan,  AK, Shopping & Stores, Ketchikan Convenience Stores",Ketchikan,US,99901,AK,Alaska,55.410484,-131.72258
Adams Beverages,3116 John D Odom Rd,"Beer and Ale, Home, Beverages, ale,  AL, Breweries, Beer & Ale Distributors, Alabama, Wholesale Trade-non-durable Goods, Food & Dining, beer, Wholesale Foods, wholesale, (1), Dothan Beer and Other Fermented Malt Liquors, Wholesale Beer, Dothan, Beverages Retail, supply, Beer and other fermented malt liquors",Dothan,US,36303,AL,Alabama,31.275806,-85.449793
Adams Beverages Inc,508 Walker St,", Real Estate Financing, Beer and Ale, Beverages, Financing, Loans, ale,  AL, Opelika Beer and Ale, Breweries, (2), Mortgages & Mortgage Bankers, Food & Dining, beer, wholesale, (1), Opelika, Legal & Financial, supply",Opelika,US,36801,AL,Alabama,32.650487,-85.357366
Alabama Abc Board,110 Commerce St S,"Food & Dining, Beverages, Breweries, Retail Shopping, Convenience Stores",Hayneville,US,36040,AL,Alabama,32.1878,-86.6643
Alabama Crown Distributing Co.,4476 Shipyard Rd,"Retail Shopping, Importers, Beverages,  AL, Breweries, (2), Convenience Stores, Food & Dining, Business To Business, (1), Wholesale Beer, Mobile, Alcoholic Beverages, Wholesale Importers, Wine and Distilled Alcoholic Beverages, Mobile Wine and Distilled Beverages",Mobile,US,36619,AL,Alabama,30.598187,-88.14192
Alabrew,8916 Parkway E,"Food & Dining, Beverages, Wine, Alabama, Birmingham, Food And Kindred Products, Flour and other grain mill products, Corn grits and flakes,  for brewers' use, , Home",Birmingham,US,35206,AL,Alabama,,
B & B Discount Beverages,675 Highway 72,"Food Stores, Liquor Stores, Breweries",Cherokee,US,35616,AL,Alabama,34.716249,-87.694187
Back Forty Beer Co,200 N 6th St,"Food & Dining, Beverages, Breweries, Retail Shopping, Convenience Stores, Tourist Attractions, Gadsden,  AL, Malt Beverages, Gadsden Beer (Alcoholic Beverage), (1)",Gadsden,US,35901,AL,Alabama,34.0154,-86.00563
Bama Budweiser of Anniston,1609 Frank Akers Rd,"Beer & Beverages, Beer & Beverages-wholesale & Distributors, Food & Dining, Beverages, Breweries, Anniston,  AL, Beer and Ale, Anniston Beer and Ale, (1), , (2), Anniston Beer and Other Fermented Malt Liquors, (4), wholesale, supply, beer, ale",Anniston,US,36207-6764,AL,Alabama,33.621236,-85.803813
Bama Budweiser of Montgomery,1700 Emory Folmar Blvd,", Beer and Ale, Beverages, (4),  AL, (3), Breweries, Montgomery, Montgomery Beer and Ale, Montgomery Wine and Distilled Beverages, Food & Dining, beer, wholesale, (1), Wholesale Beer, supply, Wine and Distilled Alcoholic Beverages",Montgomery,US,36110,AL,Alabama,32.41979,-86.258357
Bama Budweiser-sylacauga,500 E Fort Williams St,"Food & Dining, Beverages, Breweries, Sylacauga,  AL, Beer and Ale, Sylacauga Beer and Other Fermented Malt Liquors, (4), , (1), wholesale, supply, beer, ale",Sylacauga,US,35150,AL,Alabama,33.167419,-86.240816
B-dry Waterproofing,600 S Court St,"Waterproofing Contractors, Home Improvement & Maintenance, Home Builders & Developers, Brewer Equipment Supplies & Services, Basement & Crawlspace Waterproofing",Montgomery,US,36104,AL,Alabama,32.369619,-86.308933
Beer Engineers,2147 Riverchase,Brewers,Birmingham,US,35244,AL,Alabama,33.364311,-86.784886
Below The Radar,220 Holmes Ave N E,"Brewers, Brewery",Huntsville,US,35801,AL,Alabama,34.733165,-86.585664
Below The Radar-corporate Ofc,226 Holmes Ave N E,Brewers,Huntsville,US,35801,AL,Alabama,34.733027,-86.585454
Birmingham Coca-cola Bottling,4600 E Lake Blvd,"Bottlers, Beverage Manufacturers, Vending Machine Manufacturers, Breweries, Glass Manufacturers, Wholesale Restaurant Supplies, Wholesale Vending Machines, Wholesale Beverage Dispensing Equipment",Birmingham,US,35217,AL,Alabama,33.560416,-86.767746
Black Warrior Brewing Company,2216 University Blvd,"Restaurant, Brewery",Tuscaloosa,US,35401,AL,Alabama,33.210773,-87.566376
Blue Pants Brewery,500 Lanier Rd,Brewery,Madison,US,35758,AL,Alabama,,
Blue Pants Brewery & Tap Room,500 Lanier Rd 1a,Brewers,Madison,US,35758,AL,Alabama,34.685896,-86.738213
Cahaba Brewing Co,2616 3rd Ave S,"Brewers, Deordorant, Soap, Glue, Air Fresheners",Birmingham,US,35233,AL,Alabama,33.514562,-86.793758
Chattahoochee Brewing Company,13TH Saint Phenix City Al 36867,Brewery,Phenix City,US,36867,AL,Alabama,,
County Line Beverages,90 Hammond Cir,"Food & Dining, Beverages, Breweries, Retail Shopping, Convenience Stores",Attalla,US,35954,AL,Alabama,,
Cravings Inc,3095 Hwy 278 W,"Malt Beverages, Breweries",Walnut Grove,US,35990,AL,Alabama,,
Crestwood Tavern,5500 Crestwood Blvd,"Breweries & Brew Pubs, Restaurants, Bar & Grill Restaurants, Birmingham Restaurants, Crestwood North, Burgers",Birmingham,US,35212-4131,AL,Alabama,33.528528,-86.748492
Don's,300 19th St E,"Food & Dining, Beverages, Breweries",Jasper,US,35501,AL,Alabama,33.8324,-87.2713
Double D,13136 Memorial Pkwy Sw,"Retail Shopping, Convenience Stores, Bars & Clubs, liquor & beverages, Food & Dining, beer, food and drink, Beverages, Restaurants, ale, Breweries, recreation, Lounges",Huntsville,US,35803,AL,Alabama,34.58848,-86.563384
"Druid City Brewing Co, Druid City Brewing Company",907 14th St,"brewery, Brewery and Bar, bar",Tuscaloosa,US,35401,AL,Alabama,33.19996653,-87.54502999
Feb Distributing Co Inc,2155 Intraplex Pkwy Gulfport,"Food & Dining, Beverages, Breweries",Chunchula,US,36521,AL,Alabama,,
Fix My Phone,319 N Mckenzie St,"Entertainment & Arts, Food & Dining, Beverages, Cell Phone Service, Breweries, Bar, Beer Pubs & Taverns, Repair Shops, Bars Pubs & Clubs",Foley,US,36535,AL,Alabama,30.409438,-87.68414
Gadsden Budweiser Distr Co,200 Jd Smith Dr,"Food & Dining, Beverages, Alcoholic Beverages, Breweries, Retail Shopping, Convenience Stores, recreation, food and drink, liquor & beverages, ale",Attalla,US,35954,AL,Alabama,33.999803,-86.114565
Goldwire Beverage Shop,613D Goldwire St S W,"Food & Dining, Beverages, Breweries, Health & Beauty, Beauty Salons",Birmingham,US,35211,AL,Alabama,,
Gulf Distributing Co,3378 Moffett Rd,"Food & Dining, Beverages, Breweries, Mobile,  AL, Professional Services, Management Services, Mobile Business Management, wholesale, supply, beer, ale, whole, wine",Mobile,US,36607,AL,Alabama,30.705692,-88.120242
Home Package Store,1031 Skyland Blvd E,"Food & Dining, Beverages, Alcoholic Beverages, Breweries, Wine, Retail Shopping, Convenience Stores",Tuscaloosa,US,35405,AL,Alabama,,
Hughes Beverage Co Inc,310 W 16th St,"Food & Dining, Beverages, Breweries, wholesale, supply, beer",Anniston,US,36201,AL,Alabama,33.664983,-85.835269
Jt's Package Store,2121 Beltline Rd S W,"Food & Dining, Beverages, Breweries, Wine, Retail Shopping, Convenience Stores",Decatur,US,35601,AL,Alabama,34.583094,-87.023539
Kegkits.com,12021 Memorial Pkwy Se,"Winemaking Equipment & Supplies, Brewer Equipment Supplies & Services, E-Commerce",Huntsville,US,35803,AL,Alabama,34.611066,-86.56612
Kimer's Food Mart 3,421 N Broad St,"Food & Dining, Beverages, Breweries",Albertville,US,35950,AL,Alabama,34.273,-86.2063
Kwik Beverage,2203 E Willow St,"Retail Shopping, Home, Beverages, Scottsboro, ale, Miscellaneous Retail, Breweries, Beer (packaged), recreation, Convenience Stores, liquor & beverages, Food & Dining, beer, food and drink, Liquor stores, Liquor Stores",Scottsboro,US,35768,AL,Alabama,34.681436,-86.007746
Lakeside Beverage & Spirits,21701 Us Highway 431,"Retail Shopping, Beverages,  AL, Guntersville Liquor Stores, Breweries, Shopping & Stores, Convenience Stores, Beer & Wine Stores, Food & Dining, Guntersville, Alcoholic Beverages, Liquor Stores",Guntersville,US,35976,AL,Alabama,34.421414,-86.264111
Lances Pub,3738 Opelika Rd,"Entertainment & Arts, Bars, Food & Dining, Beverages, Brew Pubs, Beer & Ale, Breweries, Taverns, Bars Pubs & Clubs",Phenix City,US,36870,AL,Alabama,32.493893,-85.04849
Midtown Pub,153 S Florida St,"Bars, Brew Pubs, Bars & Pubs, Gay Bar, Beer & Ale, Breweries, Taverns",Mobile,US,36606,AL,Alabama,30.682281,-88.10069
Miller Brands Inc,1511 1st Ave,"Beer & Ale-Wholesale & Manufacturers, Food & Dining, beer, Beverages, Water Companies-Bottled Bulk, Etc, wholesale, ale, Beverages-Distributors & Bottlers, supply, Breweries",Opelika,US,36801,AL,Alabama,32.641403,-85.39022
Mountain Top Beverage,45087 Us Highway 231,"Food & Dining, Beverages, Breweries, Home, Oneonta, Miscellaneous Retail, Liquor stores, Beer (packaged), Shopping & Stores, Beer Stores",Oneonta,US,35121,AL,Alabama,33.9399,-86.4568
Murphy Plaza,200 Main St,"Food & Dining, Beverages, Breweries, Wineries",Madison,US,35758,AL,Alabama,,
Northside Beverage Llc,1754 N Friendee Pkwy,"Breweries, Wholesale Foods",Arab,US,35016,AL,Alabama,34.318151,-86.495823
Olde Towne Brewing Co,228 Holmes Ave N E,"Entertainment & Arts, Bars Pubs & Clubs, Food & Dining, Beverages, Breweries",Huntsville,US,35801,AL,Alabama,,
Party Tyme Liquor & Wine,1087 S Memorial Dr,"Check Cashing Services, Nightclubs, Convenience Stores, Liquor Stores, Beverage Manufacturers, Breweries, Wholesale Beer",Prattville,US,36067,AL,Alabama,32.452847,-86.443911
Plaza Murphy,101 Church St,"Food & Dining, Beverages, Breweries, Wineries",Madison,US,35758,AL,Alabama,,
Pockets Lounge Grill-billiards,2086 Montgomery Hwy,"Cocktail Lounges, Billiards Bars, Eating places, Beverages, Home, Restaurants, Dothan Restaurants, Breweries, Food bars, Billiards & Pool Halls, Alabama, Bars & Grills, Entertainment & Arts, Night Clubs Nightclubs Bars & Lounges, Bars, Food & Dining, Dothan, Eating And Drinking Places, Bar & Grills, Amusement Parks, Bars Pubs & Clubs",Dothan,US,36303,AL,Alabama,31.240798,-85.41271
Railyard Brewing Co Llc,12 W Jefferson St,"Brewery and American Restaurant, Pubs, Breweries",Montgomery,US,36104,AL,Alabama,32.381051,-86.309391
Rocket Republic Brewing Company,289 Production Ave,Brewery and Beer Garden,Madison,US,35758,AL,Alabama,,
Salty Nut Brewery,2406 Clinton Ave W,Brewery,Huntsville,US,35805,AL,Alabama,34.72250032,-86.60355774
"Salty Nut Brewery, Llc",4411 N W Evangel Cir A,Brewers,Huntsville,US,35816,AL,Alabama,34.736722,-86.639625
Shoal's Distributing Inc,100 Commerce St,"Food & Dining, Beverages, Breweries, wholesale, supply, beer, ale",Muscle Shoals,US,35661,AL,Alabama,34.726191,-87.660332
Spring Hill Spirits,279 Mcgregor Ave S,"Retail Shopping, Hobbies, Beverages,  AL, Breweries, Wine Stores, Cigarettes & Tobacco, Shopping & Stores, Convenience Stores, Food & Dining, Recreation, Mobile, Smoking & Tobacco, Alcoholic Beverages, Liquor Stores, Mobile Liquor Stores, Wine",Mobile,US,36608,AL,Alabama,30.683978,-88.148422
Srs So Montgomery Al,1580 Parallel St," alcoholic beverages, manufacturing, Beer and Ale, Home, Beverages, Other Social Services, ale, Miscellaneous Retail,  AL, Breweries, Medical Schools, Manufacturing, Montgomery, Wine and beer, Alabama, Adult and Continuing Education, Food & Dining, beer, Liquor stores, wholesale, Montgomery Wholesale Beer and Ale, supply, Alcoholic Beverages",Montgomery,US,36104,AL,Alabama,32.405724,-86.320142
Straight To Ale,3200 Leeman Ferry Rd S W,Brewery,Huntsville,US,35801,AL,Alabama,34.701674,-86.591853
Supreme Beverage Co,106 Avalon Ave,"Food & Dining, Beverages, Breweries, Beverage & Drinks, Muscle Shoals,  AL, Beer and Ale, Muscle Shoals Beer and Other Fermented Malt Liquors, (1)",Muscle Shoals,US,35661,AL,Alabama,34.744863,-87.677206
Supreme Beverage Co Inc,2100 Jackson Ave N W,"Food & Dining, Beverages, Breweries",Huntsville,US,35805,AL,Alabama,34.727457,-86.597983
Sushi Boy Girl,675 Opelika Rd,"Sushi Bars, Asian Restaurants, Beverages, Pub Restaurants, Restaurants,  AL, Restaurants & Bars, Breweries, Beer Pubs & Taverns, Entertainment & Arts, Food & Dining, Auburn, Food and Dining, Auburn Restaurants, Bars Pubs & Clubs",Auburn,US,36830,AL,Alabama,32.615738,-85.466576
Ted The Wine Guy and Company,3062 Zelda Rd,"Wholesale Foods, Breweries, Beer & Ale Distributors, Beer & Ale Retail, Wine Consultants",Montgomery,US,36106,AL,Alabama,32.355077,-86.264814
The Corner Store,1400 W Paul Bryant Dr,"Food & Dining, Beverages, Breweries",Tuscaloosa,US,35401,AL,Alabama,33.206737,-87.555099
Trim Tab Brewing,2721 5th Ave S,"Breweries, Food & Drink",Birmingham,US,35233,AL,Alabama,33.512867,-86.7915
Vizzini Farms Winery,800 Hwy 87,"Wineries, Brewers",Calera,US,35040,AL,Alabama,33.175855,-86.775418
Watetu Beverage,161 Citation Ct,"Food & Dining, Beverages, Breweries, Birmingham,  AL, Beer and Ale, Birmingham Beer and Ale, (4), (2), (1)",Birmingham,US,35209,AL,Alabama,,
Webbpak Inc,110 Railroad Ave,"Sugar Manufacturers, Food Processor Manufacturers, Beverage Manufacturers, Flavoring Extract Manufacturers, Prepared Food Manufacturers, Breweries, Other Wholesale Commercial Equipment, Wholesale Food Product Manufacturing Equipment",Trussville,US,35173,AL,Alabama,33.619071,-86.605587
White Oak Vineyards,1484 Dry Hollow Rd,"Vineyards, Food & Dining, vineyard, Beverages, wholesale, grape, Breweries, Wineries, farming, Wine",Anniston,US,"36207, 36207-1155",AL,Alabama,33.667219,-85.671189
Windmill Beverages,3709 Us Highway 31 S,"Food & Dining, Beverages, Breweries",Decatur,US,35603,AL,Alabama,34.536044,-86.974162
64 E Liquor,2257 Highway 64,"Beer & Wine Stores, Liquor Stores, Food & Dining, Beverages, Breweries, Morrilton,  AR, Shopping & Stores, Morrilton Liquor Stores",Morrilton,US,72110,AR,Arkansas,35.15428389,-92.69471638
Apple Blossom Brewing Company,1550 Zion Rd,"Brewery, Bar",Fayetteville,US,,AR,Arkansas,36.12955292,-94.13756496
Arrow Brewing Co,1161 W Henri De Tonti Blvd,Brewers,Tontitown,US,72770,AR,Arkansas,36.176851,-94.255521
Belle Point Beverages Inc,1 Bellepoint Pl,"Food & Dining, Beverages, Breweries, Fort Smith,  AR, Beer and Ale, Fort Smith Beer and Other Fermented Malt Liquors, (4), , (1)",Fort Smith,US,72901-1953,AR,Arkansas,35.391,-94.4293
Bentonville Brewing Co,1000 S E 5th St,"Professional Services, wholesale, Brewers, supply, Shipping",Bentonville,US,72712,AR,Arkansas,36.367101,-94.198234
"Bj's Restaurants, Bj's Restaurant and Brewhouse",2624 S Shackleford Rd,"Take Out Restaurants, American Restaurant, American Restaurants, Brew Pubs, Restaurants, Sports Bars, Beer & Ale, Brewery, Family Style Restaurants, Pizza",Little Rock,US,72205,AR,Arkansas,34.73051,-92.39494
"Blue Canoe Brewing Co, Blue Canoe Brewing Company",425 E 3rd St,"Bars, Brew Pubs, Restaurants, Brewery, Beer & Ale, Taverns",Little Rock,US,72201,AR,Arkansas,34.74561,-92.26681
Brews,2 Pine,"Breweries, Food & Drink",Eureka Springs,US,72632,AR,Arkansas,36.397335,-93.74686
Brickstreet Brews Llc,208 W Walnut St,Brewers,Rogers,US,72756,AR,Arkansas,36.33316,-94.118171
Burford Distributing Inc,925 S H St,"Other, Food & Dining, Beverages, Breweries, Fort Smith,  AR, Advertising & Marketing, Advertising,  NEC, Fort Smith Distribution Services",Fort Smith,US,72901,AR,Arkansas,35.375657,-94.424332
Camden Wholesale Inc,416 E Washington Ave,"Food & Dining, Beverages, Breweries, Arkansas, Camden, Wholesale Trade-non-durable Goods, Beer and ale, Beer and other fermented malt liquors, , Home",Camden,US,71701,AR,Arkansas,33.5875,-92.825
Coco Distributing Co Inc,1219 Martin Luther King Jr Dr,"Food & Dining, Beverages, Breweries, Helena,  AR, Beer and Ale, Beer and Other Fermented Malt Liquors, wholesale, supply, beer, ale",Helena,US,72342,AR,Arkansas,34.502489,-90.606488
Columbus House Brewery and Tap Room,701 W North St,"Breweries, Food & Drink",Fayetteville,US,72701,AR,Arkansas,36.07718,-94.16886
Coors Distributor,700 E Broad St,"Food & Dining, Beverages, Breweries, Drinking Water",Texarkana,US,71854,AR,Arkansas,33.424409,-94.03621
Core Brewing,3775 N Mall Ave,"Distillers, Brewers, Breweries, Alcoholic Beverages Wholesale & Manufacturers",Fayetteville,US,72703,AR,Arkansas,36.120104,-94.150261
Core Brewing & Distilling Co,2470 N Lowell Rd,"Breweries, Wineries, Alcoholic Beverages Wholesale & Manufacturers",Springdale,US,72764,AR,Arkansas,36.206562,-94.133636
Core Brewing Co.,2470 Lowell Rd,"Breweries, Food & Drink",Springdale,US,72764,AR,Arkansas,36.206394,-94.13458
Core Public House - Pub,701 Rogers Ave,"Breweries, Bars & Clubs, Nightlife, Food & Drink",Fort Smith,US,72901,AR,Arkansas,35.38537,-94.42486
Country Liquor Store,16973 Highway 1,"Food & Dining, Beverages, Breweries, Retail Shopping, Convenience Stores, Harrisburg,  AR, Shopping & Stores, Liquor Stores",Harrisburg,US,72432-8748,AR,Arkansas,35.6951,-90.6977
Damgoode Pies,500 President Clinton Ave,"Brewery, Pizza Place, Pizza Place and Brewery",Little Rock,US,72201,AR,Arkansas,34.74773569,-92.26548916
"Diamond Bear Brewing Co, Diamond Bear Brewing Company",323 S Cross St,breweries,Little Rock,US,72201,AR,Arkansas,34.74721,-92.2836
Ed Roleson Jr Inc,400 W Baldwin St,"Food & Dining, Beverages, Breweries, Paragould, Wholesale Trade-non-durable Goods, Beer and ale, Beer and other fermented malt liquors, wholesale, supply, beer, ale, , Home",Paragould,US,72450,AR,Arkansas,36.045477,-90.493039
El Paraiso Restaurant & Beer,5751 State Highway 165 Branson,"Food & Dining, Beverages, Breweries",Mountain Home,US,72653,AR,Arkansas,36.3326,-92.3609
Fasweet Co,215 N Culberhouse St,"Beverage Manufacturers, Chemical Manufacturers, Sugar Manufacturers, Other Chemical Manufacturers, Marketing Consultants, Breweries, Prepared Food Manufacturers, Flavoring Extract Manufacturers",Jonesboro,US,72401,AR,Arkansas,35.845527,-90.712828
Flyway Brewing Company,314 Maple St,Brewery,N Little Rock,US,72114,AR,Arkansas,,
Fortune C R Beer Co,205 Plum St,"Food & Dining, Beverages, Breweries",Newport,US,72112,AR,Arkansas,35.6075,-91.2784
Fortune C R Beer Inc, Hwy 201 Spur,"Food & Dining, Beverages, Breweries",Norfork,US,72658,AR,Arkansas,36.3335,-92.3617
Fossil Cove Brewery,1946 N Birch Ave,Brewery,Fayetteville,US,72703,AR,Arkansas,,
Foster's Pint & Plate,72758 2001 S Bellview Rd,American Restaurant and Brewery,Rogers,US,72758,AR,Arkansas,36.31220247,-94.17217175
Golden Eagle Of Arkansas Inc,1900 E 15th St,"Food & Dining, Beverages, Breweries, wholesale, supply, beer, ale",Little Rock,US,72202,AR,Arkansas,34.732335,-92.249747
Grumpy's,1801 Green Mountain Dr,Bar and Brewery,Little Rock,US,72212,AR,Arkansas,,
Home Brewery,455 E Township St,", shop, Homebrewing, Home, Hobbies, Beverages, Fayetteville, Beer-home Brewing Equipment & Supplies, equipment, Wholesale Trade-non-durable Goods, Food & Dining, Beer & Beverages, beer, Recreation, Winemaking Equipment & Supplies, Brewer Equipment Supplies & Services, supply, Beer and ale, Beer and other fermented malt liquors, retail, Wine",Fayetteville,US,"72703, 72703-3444",AR,Arkansas,36.094958,-94.15192
Hooper Sales Co,316 N 5th St,"Wholesale Beer, Food & Dining, Beverages, Breweries, Liquor Stores, West Memphis, Wholesale Trade-non-durable Goods, Beer and ale, Beer and other fermented malt liquors, wholesale, supply, beer, ale, , Home",W Memphis,US,72301,AR,Arkansas,35.148429,-90.17782
James E Owen,510 J O Farms Rd,"Food & Dining, Beverages, Breweries",Star City,US,71667,AR,Arkansas,33.9342,-91.8356
Lost Forty Brewing,501 Byrd St,"Brewery, Brewery East of I-30",Little Rock,US,72202,AR,Arkansas,34.742212,-92.25975037
Ludwig Distributing Co,503 E 13th St,"Food & Dining, Beverages, Breweries, Drinking Water",Stuttgart,US,72160,AR,Arkansas,34.491237,-91.547806
Mc Bride Distributing Co,2849 S School Ave,"Other, Food & Dining, Beverages, Breweries, Fayetteville,  AR, Beer and Ale, Fayetteville Beer and Other Fermented Malt Liquors, (2), , (1), (4), wholesale, supply, beer, ale",Fayetteville,US,72701,AR,Arkansas,36.031643,-94.171384
Mom's Place Tavern,1408 S Thompson St,"Breweries & Brew Pubs, Entertainment & Arts, Bars Pubs & Clubs, recreation, food and drink, drinking",Springdale,US,72764-6318,AR,Arkansas,36.172574,-94.139134
Mr G's Trucking Inc,7300 Illinois St,"Little Rock, AR, Beverages, Malt Beverages, Little Rock Brewers' Grain, (1), Little Rock,  AR",Little Rock,US,72207-6036,AR,Arkansas,,
New Province Brewing Company,1310 W Hudson Rd,"Breweries, Food & Drink",Rogers,US,72756,AR,Arkansas,36.35531,-94.13457
Oasis Tavern,3215 Midland Blvd,"Cocktail Lounges, Fort Smith, Breweries & Brew Pubs, Restaurants & Bars, Venues, recreation, Cocktail Lounge Restaurants, Taverns, Bars / Taverns, food and drink, Restaurant, Beer Taverns & Pubs, Bar, Fort Smith Bars,  AR, Bar & Grill Restaurants",Fort Smith,US,72904,AR,Arkansas,35.410633,-94.392426
Premium Brands of Nw Arkansas,1032 S Razorback Rd,"Food & Dining, Beverages, Breweries, Fayetteville,  AR, Beer and Ale, Fayetteville Beer and Other Fermented Malt Liquors, (2), , (1), (4)",Fayetteville,US,72701-6355,AR,Arkansas,36.049874,-94.180851
Puritan Brew Co,205 W Dickson St,Brewers,Fayetteville,US,72701,AR,Arkansas,36.065995,-94.162035
Rafferty's Liquor,13200 I 30,"Liquor Store, Brewery",Little Rock,US,72209,AR,Arkansas,,
Rebel Kettle Brewing Co.,822 E 6th St,"Brewery, Brewery East of I-30",Little Rock,US,72202,AR,Arkansas,,
Red Gate Liquor Store,13325 Interstate 30,"Retail Shopping, Little Rock Liquor Stores, Beverages, Breweries, Wine & Distilled Beverages Retail, Little Rock, Shopping & Stores, Convenience Stores, Beer & Wine Stores, Food & Dining, Beverages Retail, Liquor Stores,  AR, Beer & Ale Retail, Wine",Little Rock,US,72209,AR,Arkansas,34.641121,-92.442386
Stone's Throw Brewing,402 E 9th St,"Coffee Brewing Devices, Food & Drink, Breweries, Brewery, Beer Garden, Brewery and Beer Garden Downtown Little Rock",Little Rock,US,72202,AR,Arkansas,34.73988,-92.26803
Storm Brewery,321 E Emma Ave,Brewers,Springdale,US,72764,AR,Arkansas,36.184911,-94.127717
Superior Bathhouse Brewery and Distillery,329 Central Ave,"Breweries, Distilleries, Food & Drink",Hot Springs,US,71901,AR,Arkansas,34.515247,-93.05359
Table Rock Beverage Co,10718 Tablerock Dr,"Beverage Manufacturers, Breweries, Wholesale Tobacco Products",Fortsmith,US,72916,AR,Arkansas,35.282429,-94.37218
Tanglewood Branch Beer Co,1431 S School Ave,Brewers,Fayetteville,US,72701,AR,Arkansas,36.048848,-94.164339
Three Rivers Distributing Co,2821 Port Rd,", Beer and Ale, Beverages, ale, Breweries, Beer & Ale Distributors, (2), Food & Dining, beer, wholesale, (1), Pine Bluff Beer and Other Fermented Malt Liquors, supply,  AR, Pine Bluff",Pine Bluff,US,71601,AR,Arkansas,34.229186,-91.973006
Toddy Shop Inc,14001 Cantrell Rd,"Food & Dining, Beverages, Breweries, Retail Shopping, Convenience Stores, Little Rock,  AR, Shopping & Stores, Liquor Stores, Little Rock Beer Stores, recreation, food and drink, liquor & beverages, alcoholic",Little Rock,US,72223,AR,Arkansas,34.801961,-92.427747
Vino's,923 W 7th St,"Bars, Restaurants, Brewery, Italian Restaurants, Bar & Grills, Pizza Place, Pizza, Dive Bar",Little Rock,US,72201,AR,Arkansas,34.74332,-92.28214
West Mountain Brewing Company,21 W Mountain St,"American Restaurant, Brewery, Coffee Shop, Pizza Place",Fayetteville,US,72701,AR,Arkansas,,
White River Beverage Co,2101 Fairground Rd,"Beverage Manufacturers, Canned Juices Manufacturers, Distribution Centers, Food & Dining, Beverages, Breweries, Newport,  AR, Beer and Ale, Newport Beer and Other Fermented Malt Liquors, (1), , (2)",Newport,US,72112,AR,Arkansas,35.63270365,-91.25372752
American Brewing Co.,180 W Dayton St,"Brewery, American Restaurant",Edmonds,US,98020,AU-WA,Washington,,
Ice Harbor Brewing Co.,350 Clover Island Dr,Brewery,Kennewick,US,99336,AU-WA,Washington,,
Ice Harbor Brewing Company,206 N Benton St,Brewery,Kennewick,US,99336,AU-WA,Washington,,
Iron Horse Brewery,412 N Main St,"Brewery, Pub",Ellensburg,US,98926,AU-WA,Washington,,
Naked City Brewery & Taphouse,8564 Greenwood Ave N,brewery,Seattle,US,98103,AU-WA,Washington,,
Rachel's Ginger Beer,1530 Post Aly,brewery,Seattle,US,98101,AU-WA,Washington,,
Ram Restaurant and Brewery,10520 Quil Ceda Blvd,"American Restaurant, Brewery",Quil Ceda Village,US,98271,AU-WA,Washington,,
"Silver City Restaurant and Alehouse, Silver City Restaurant & Brewery",2799 N W Myhre Rd,Brewery,Silverdale,US,98383,AU-WA,Washington,,
Skagit River Brewery,404 S 3rd St,Brewery,Mount Vernon,US,98273,AU-WA,Washington,,
Snoqualmie Brewery & Taproom,8032 Falls Ave S E,"brewery, bar",Snoqualmie,US,98065,AU-WA,Washington,,
Stoup Brewing,1108 N W 52nd,brewery,Seattle,US,98107,AU-WA,Washington,,
"The North Fork Brewery, Pizzeria, Beer Shrine and Wedding Chapel",6186 Mt Baker Highway (sr 542),"Pizza Place, Brewery",Deming,US,98244,AU-WA,Washington,,
Yakima Craft Brewing Company,2920 River Rd,"Brewery, Pub",Yakima,US,98902,AU-WA,Washington,,
1912 Brewing Co.,2045 N Forbes Blvd,"Breweries, Food & Drink",Tucson,US,85745,AZ,Arizona,32.24656,-110.99348
8-bit Aleworks,1050 N Fairway Doctor F,"Bars, Brewery and Bar, Brewery, Bar, Taverns",Avondale,US,85323,AZ,Arizona,33.45448735,-112.3263172
Al J's Tavern,4980 E 22nd St,"breweries & brew pubs, restaurants, bar & grill restaurants, Tucson, Venues, Bar, Entertainment & Arts, Bars Pubs & Clubs,  AZ, Restaurants & Bars, Bars / Taverns, Tucson Pubs, recreation, food and drink, drinking",Tucson,US,85711-4906,AZ,Arizona,32.206853,-110.887057
Altered Element - Commercial & Residential Only,Po Box 50508,"Credit & Collections, Investments, Investment Advice, Other Financial Services, Beverage Manufacturers, Brewers, Personal Chefs, Catering, Unclassified",Phoenix,US,85076,AZ,Arizona,33.35,-111.98
Amigos Burgers and Beer,6372 S Nogales Hwy,"drinking, Restaurants, breweries & brew pubs, hot dog restaurants, hamburger restaurants, recreation, fast food restaurants, Entertainment & Arts, Food & Dining, Restaurant, food and drink, restaurants, Bars Pubs & Clubs",Tucson,US,85706-6825,AZ,Arizona,32.136116,-110.96186
Arizona Air Boutique,10401 N 32nd St,"Balloons & Delivery, Winemaking Equipment & Supplies, Helium Gases, Brewer Equipment Supplies & Services, Advertising Specialties Wholesale & Manufacturers",Phoenix,US,85028,AZ,Arizona,33.581147,-112.012906
Arizona Beverage Control,2730 E Jones Ave,"Brewer Equipment Supplies & Services, Beverage Dispensing Equipment Supplies & Repair",Phoenix,US,85040,AZ,Arizona,33.410786,-112.022744
Arizona Brewery Tours,2990 E Washington,"Food & Drink, Tours, Brewery Tours, Tour",Phoenix,US,,AZ,Arizona,33.44853,-112.01776
Arizona Wilderness Brewing Co.,721 N Arizona Ave,"Brewery new horiz, Brewery",Gilbert,US,85233,AZ,Arizona,33.36296939,-111.8411647
Barley Brothers Brewery,1425 Mcculloch Blvd N,"Bars & Clubs, Brew Pubs, Bars & Pubs, Restaurants, American, Traditional American Restaurants, Brewers, Pub Food, Pizza Restaurants, Pizza, Taverns",Lake Havasu City,US,86403,AZ,Arizona,34.472336,-114.349947
Bear Dog Brewing Co.,3965 E Douglas Loop,Brewery and Bar,Gilbert,US,85234,AZ,Arizona,,
Beers Enterprises Inc,211 W Monroe St,"Wholesale Beer Dispensing Equipment, Brewer Equipment Supplies & Services",Phoenix,US,85003,AZ,Arizona,33.450221,-112.07689
Ben's United Market & Discount,2500 S 6th Ave,"Food & Dining, Beverages, Breweries, Grocery Stores, Retail Shopping, Convenience Stores, recreation, food and drink, liquor & beverages",Tucson,US,85713,AZ,Arizona,32.19242,-110.968373
Beverage Place,2250 Highway 60,"Food & Dining, Beverages, Breweries, Wine, Retail Shopping, Convenience Stores",Miami,US,85539,AZ,Arizona,33.4177,-110.8252
Bison Witches Bar & Deli,326 N 4th Ave,"Bars, Bars & Clubs, Restaurants, Deli / Bodega, Sandwich Shops, Nightlife, Bar, Deli / Bodega, and Brewery, Brewery, Bar, Delicatessens",Tucson,US,85705,AZ,Arizona,32.22524,-110.96556
"Bj's Restaurant and Brewhouse - Mesa, Bj's Restaurant and Brewhouse",6622 E Superstition Springs Blvd,"American Restaurant, Restaurant, Brewery, Pizza Place",Mesa,US,85206,AZ,Arizona,33.3848762,-111.6908199
"Bj's Restaurant and Brewhouse, Bj's Restaraunt Brewhouse",9748 W Northern Ave,"American Restaurant, Restaurant, Brewery, Pizza Place, American Restaurant, Pizza Place, and Brewery Parke West, American Restaurant, Pizza Place, and Brewery",Peoria,US,85345,AZ,Arizona,33.55188787,-112.2692388
Black Canyon Brewing Supplies,2734 W Bell Rd,Breweries,Phoenix,US,85053,AZ,Arizona,33.640051,-112.119214
Black Hole Beer Company,1590 Swenson St,Brewery,Prescott,US,86305,AZ,Arizona,34.565666,-112.49411
Blackrock Brewers,Tdb,"Bars & Clubs, Breweries, Nightlife, Food & Drink",Tucson,US,85748,AZ,Arizona,,
Blasted Barley Beer Co,404 S Mill Ave,Breweries,Tempe,US,85281,AZ,Arizona,33.426423,-111.940217
Borderlands Brewing Co,119 E Toole Ave (7th Ave),"Beer Garden, Brewery",Tucson,US,85701,AZ,Arizona,32.22608295,-110.9702375
Borderlands Brewing Company,119 E Toole Ave,"Bars & Clubs, Beverages, Tours & Activities, Food & Drink, Brewery and Beer Garden, Beer & Ale, Breweries, Wineries, Wine Bars, Concerts & Shows, More, Nightlife, Brewery, Brewery Tours, Beer Garden",Tucson,US,85701,AZ,Arizona,32.225517,-110.97023
Brewer's A/c & Htg.,9111 S Hardy Dr,"Tempe Heating & Air Conditioning, Brewer's A/c & Htg.",Tempe,US,85284,AZ,Arizona,,
Brewers Connection,1435 E University Dr,Brewer Equipment Supplies & Services,Tempe,US,85281,AZ,Arizona,33.421854,-111.915018
Brewing Rivalry,203 E 7th St,"Tempe, AZ, Beverages, Malt Beverages, Tempe Brewers, (1),, (2), (1), Tempe,  AZ, ",Tempe,US,85281-3712,AZ,Arizona,,
Bronwynn's Brew,5615 W Acoma Dr,"Food & Dining, Beverages, Breweries",Glendale,US,85306,AZ,Arizona,33.61741,-112.180626
Budweiser Distributors,1217 S Fiesta Ave,"Food & Dining, Beverages, Breweries",Parker,US,85344,AZ,Arizona,34.149914,-114.283695
Canteen Modern Tequila Bar,640 S Mill Ave,"Restaurants, Bar, Brewery",Tempe,US,85281,AZ,Arizona,33.42414,-111.940414
Canyon Distributing Co,2682 N Oatman Rd,"Food & Dining, Beverages, Breweries",Kingman,US,86401,AZ,Arizona,35.3322,-113.9823
Canyon Distributing Co.,10190 E Valley Rd,"Beer & Ale-Wholesale & Manufacturers, Food & Dining, Beverages, Breweries",Prescott Valley,US,86314,AZ,Arizona,34.58586,-112.27625
Cartel Brewery,225 W University Dr,Brewery Maple Ash,Tempe,US,85281,AZ,Arizona,,
Cartel Coffee Lab,7124 E 5th Ave,"Coffee Shops, Coffee & Tea, Coffee Shop and Internet Cafe Downtown Scottsdale, Restaurants, Internet Cafe, Coffee Shop, Brewery, and Internet Cafe Downtown Scottsdale, Coffee Shop and Internet Cafe, Coffee Shop",Scottsdale,US,85251,AZ,Arizona,33.49842498,-111.9275522
Catalina Steakhouse At Starr Pass Country Club,3645 W Starr Pass Blvd,"Tucson Restaurants, Starr Pass, American / Steak / Brewery",Tucson,US,85745,AZ,Arizona,,
Charly's Pub & Grill,23 N Leroux St,"American Restaurant, Catering Companies, Bars & Clubs, American Restaurant, Brewery, and Gastropub, Bars & Pubs, Restaurants, Gastropub, Brewery, Catering, Taverns",Flagstaff,US,86001,AZ,Arizona,35.198414,-111.649106
Cjsip Market,1353 S 4th Ave,"Food & Dining, Beverages, Breweries",Tucson,US,85713,AZ,Arizona,32.205219,-110.965237
"Coinstar, Fry's Marketplace",1815 W Glendale Ave,"Supermarket, Cheese Shops, Grocery Stores & Supermarkets, Breweries, Beer & Ale Distributors, Grocery Store, Beer & Ale Retail, Coin & Money Handling Equipment, Pharmacy",Phoenix,US,85021,AZ,Arizona,33.538479,-112.097777
College Street Brewhouse & Pub,1940 College Dr,"Bistros, Bars & Pubs, Brewery, Breweries",Lake Havasu City,US,86403,AZ,Arizona,34.507565,-114.34744
Cork & Bottle Liquors,4101 E Mcdowell Rd,"bartending services, brewer equipment supplies & services, beer & ale retail, Liquor Store, Liquor Store Camelback East, liquor stores, Beer & Ale, wine & distilled beverages retail, Liquor Stores, Beer & Ale Retail",Phoenix,US,85008,AZ,Arizona,33.465539,-111.992817
Cox Cable,17550 N 75th Ave,"Liquor Store, Data Communications Cabling, Breweries, Brewery, Beer & Ale Distributors, Wine Shop, Wine & Distilled Beverages Retail, Liquor Stores, Beer & Ale Retail",Glendale,US,85308,AZ,Arizona,33.643251,-112.220538
Dark Sky Brewing,117 N Beaver St,Brewery,Flagstaff,US,86001,AZ,Arizona,35.1995697,-111.649765
Dark Sky Brewing Co,117 N Beaver Saint A,Brewers,Flagstaff,US,86001,AZ,Arizona,35.199399,-111.649588
Deja Brew Tours,5190 N Kramer Dr,"Tours & Activities, Food & Drink, Brewery Tours, tour, Tour",Lake Montezuma,US,86342,AZ,Arizona,34.654472,-111.77459
Dereks Man Cave,1304 E Dunbar Dr,"Az"">brewery",Tempe,US,85282,AZ,Arizona,33.37997142,-111.9172336
Desert Eagle Brewing Company,150 W Main St,"Brewery Downtown Mesa, Bars & Clubs, Nightlife, Brewery",Mesa,US,85201,AZ,Arizona,33.41541202,-111.8358431
Dorado's Coastal Mexican Grill,103 N Leroux St,"Mexican Restaurant, Bar, and Brewery, Brewery, Bar, Mexican Restaurant",Flagstaff,US,86001,AZ,Arizona,35.19878893,-111.6488062
Dragoon Brewing Co.,1859 W Grant Rd,Brewery,Tucson,US,85745,AZ,Arizona,32.24884931,-111.0062885
Dubina Brewing Co.,17035 N 67th Ave,Brewery,Glendale,US,85308,AZ,Arizona,33.63985556,-112.2023523
Dwight's Window Tinting,1431 W Valencia Rd,"auto glass, military & war movies, animated feature films, anime & manga movies, animated comedies, fairy tale movies, art house films, independent films, foreign films, african cinema, credit & collections, investments, investment advice, other financial services, tax return preparation, beverage manufacturers, mergers & acquisitions, breweries",Tucson,US,85746,AZ,Arizona,32.133449,-110.994665
Electric Charging Station,4707 E Shea Blvd,"Electric Cars, Cheese Shops, Grocery Stores & Supermarkets, Banks, Breweries, Beer & Ale Distributors, Beer & Ale Retail, Coin & Money Handling Equipment",Phoenix,US,85028,AZ,Arizona,33.582477,-111.979621
"Electric Charging Station, Fry's Marketplace",2727 W Bell Rd,"Supermarket, Clinics & Medical Centers, Cheese Shops, Supermarket and Grocery Store, Breweries, Beer & Ale Distributors, Health Information & Referral Consultants, Family & General Practice Physicians & Surgeons, Electric Cars, Physician Assistants, Grocery Stores & Supermarkets, Grocery Store, Clinics, Beer & Ale Retail",Phoenix,US,85053,AZ,Arizona,33.639622,-112.119635
Flag Brew Tours,1500 E Cedar Ave 18,Brewers,Flagstaff,US,86004,AZ,Arizona,35.218371,-111.622835
Flagstaff Brewing Company,16 E Route 66,"Brewery, Coffee Shop, and Food",Flagstaff,US,86001,AZ,Arizona,35.19755788,-111.6484685
Four Peaks Brewery,2401 S Wilson St,"Beverages-Distributors & Bottlers, Breweries, Beer & Ale",Tempe,US,85282,AZ,Arizona,33.402551,-111.944557
Four Peaks Brewing Co,1340 E 8th Saint (at Dorsey Ln),"Brewery, Bar, American Restaurant",Tempe,US,85281,AZ,Arizona,33.41950523,-111.9159383
Four Peaks Brewing Company,1340 E 8th St,"American Restaurant, Bars & Clubs, American Restaurants, Restaurants, Beer & Ale, Breweries, Bars, Brew Pubs, Nightlife, Brewery, Brewery, Bar, and American Restaurant, Bar, Bar & Grills, Pizza, Delicatessens",Tempe,US,85281,AZ,Arizona,33.4193,-111.916985
Four Peaks Grill & Tap,15745 N Hayden Rd D5 7,"American Restaurant, Brewery and American Restaurant, Brewery and American Restaurant Airpark, Brewery",Scottsdale,US,85260,AZ,Arizona,33.62871272,-111.8933594
Fred Nackard Wholesale Beverage Co,1800 S Us Highway 60,"Food & Dining, Beverages, Breweries, Wine",Winslow,US,86047,AZ,Arizona,35.2549,-110.3431
Fred Nackard Wholesale Bvrg Co,1800 E Hwy 60,"Beverage Manufacturers, Breweries",Globe,US,85501,AZ,Arizona,33.394098,-110.767806
Free Parking!,125 E 5th St,"bar, wholesale, manufacturing, food, brewer",Tempe,US,85281,AZ,Arizona,33.42545,-111.936963
Fry's Food and Drug,18420 N 19th Ave,"Cheese Shops, Grocery Stores & Supermarkets, Breweries, Beer & Ale Distributors, Beer & Ale Retail",Phoenix,US,85023,AZ,Arizona,33.653983,-112.099906
Fry's Marketplace,1311 E Bell Rd,"Cheese Shops, Grocery Stores & Supermarkets, Breweries, Beer & Ale Distributors, Beer & Ale Retail",Phoenix,US,85022,AZ,Arizona,33.640141,-112.054152
Fry's Mercado,4230 W Mcdowell Rd,"Cheese Shops, Grocery Stores & Supermarkets, Breweries, Beer & Ale Distributors, Beer & Ale Retail",Phoenix,US,85009,AZ,Arizona,33.466092,-112.150065
Gentle Ben's Brewing Co,865 E University Blvd (at Tyndall Ave),"Beer Garden, American Restaurant, Brewery",Tucson,US,85719,AZ,Arizona,32.231967,-110.958033
"Gentle Ben's Brewing Co., Gentle Ben's Brewing Co",865 E University Blvd,"American Restaurant, Bars & Clubs, Brew Pubs, Bars & Pubs, Restaurants, Nightclubs, Brewery, Beer Garden, Taverns",Tucson,US,85719,AZ,Arizona,32.231966,-110.958033
Goat Head Saloon,1423 S Country Club Dr,"Dive Bar, Bar, Brewery",Mesa,US,85210,AZ,Arizona,,
Golden Eagle Distributors,1000 N Jefferson Ave,"Wholesale Beer, Food & Dining, Beverages, Breweries, Casa Grande,  AZ, Beer and Ale, Casa Grande Beer and Other Fermented Malt Liquors, (1), Home, Wholesale Trade-non-durable Goods, Beer and other fermented malt liquors",Casa Grande,US,85222,AZ,Arizona,32.882278,-111.777442
Golden Eagle Distributors Inc,4000 E Industrial Loop,"Food & Dining, Beverages, Breweries",Show Low,US,85901,AZ,Arizona,34.1865,-110.061
Golden Eagle Sales,1508 Central St,"Food & Dining, Beverages, Breweries",Winslow,US,86047,AZ,Arizona,35.026396,-110.714656
Goldwater Brewing Company,3608 N Scottsdale Rd,Pub and Brewery,Scottsdale,US,85251,AZ,Arizona,33.48973937,-111.9263494
Gordon Biersch Brewery & Restaurant,322 E Camelback Rd,"Food & Dining, Beverages, Breweries",Phoenix,US,85012,AZ,Arizona,33.509237,-112.068925
Grand Canyon Brewery,201 299 W Route 66,Brewery,Williams,US,86046,AZ,Arizona,35.25009395,-112.1892364
Grand Canyon Brewing Company,233 W Route 66,"Breweries, Food & Drink",Williams,US,86046,AZ,Arizona,35.25026,-112.18913
Granite Mountain Brewing,123 N Cortez,Brewery,Prescott,US,86303,AZ,Arizona,34.54280161,-112.4684501
Gus's Liquor Store,4302 E Grant Rd,Brewery,Tucson,US,85712,AZ,Arizona,,
H&r Block,3511 W Peoria Ave,"Supermarket, Income Tax Services, Tax Return Preparation Accountants, Cheese Shops, Grocery Stores & Supermarkets, Breweries, Beer & Ale Distributors, Grocery Store, Tax Return Preparation & Electronic Filing, Tax Return Preparation, Beer & Ale Retail, Income Tax Consultants",Phoenix,US,85029,AZ,Arizona,33.581745,-112.135271
"Helio Basin Brewing Co, Helio Basin Brewing Co.",3935 E Thomas Rd,"Pubs, Restaurants, Breweries, Brewery",Phoenix,US,85018,AZ,Arizona,33.480286,-111.99676
Helton Brewing Company,2144 E Indian School Rd,"Breweries, Brewery, restaurant",Phoenix,US,85016,AZ,Arizona,33.494923,-112.035533
Hensley & Co,10201 E Valley Rd,"Food & Dining, Beverages, Breweries",Prescott Valley,US,86314,AZ,Arizona,34.583,-112.2829
Hensley Beer,2927 S Hardy Dr,"Food & Dining, Beverages, Breweries",Tempe,US,85282,AZ,Arizona,33.397861,-111.950851
Historic Brewing Co,4366 E Huntington Dr,Brewers,Flagstaff,US,86004,AZ,Arizona,35.218486,-111.586195
Historic Brewing Co Barrel,110 S San Francisco St,Brewers,Flagstaff,US,86001,AZ,Arizona,35.195327,-111.648787
Huss Brewing Co Llc,1520 W Mineral Rd,"Bars & Clubs, Nightlife, Breweries",Tempe,US,85283,AZ,Arizona,33.356537,-111.964474
Ice Breakers Restaurant & Brewery,15730 N Pima Rd,"Commercial Banks, Brewery and Wine Bar, Other Financial Services",Scottsdale,US,85260,AZ,Arizona,33.628797,-111.891
Insurgent Brewing Co,990 N State Rte 89,Brewers,Chinovalley,US,86323,AZ,Arizona,34.798581,-112.453011
Iron John's Brewing Company,245 S Plumer Ave,"Breweries, Food & Drink",Tucson,US,85719,AZ,Arizona,32.219032,-110.93863
Jersey D's Tavern & Grill,5945 W Ray Rd,"Restaurants, Bars & Pubs, Breweries",Chandler,US,85226,AZ,Arizona,33.319665,-111.944473
Jersey's Tavern & Grill,5945 W Ray Rd Ste 13,"Bars & Pubs, Restaurants, Wineries, Brewers",Chandler,US,85226,AZ,Arizona,33.3199,-111.9443
Joe's Place,34482 N Scottsdale Rd,"Scottsdale Restaurants, Boulders Carefree, Arizona, Scottsdale, Food And Kindred Products, Malt beverages, Brewers' grain, , Home",Scottsdale,US,85266,AZ,Arizona,,
"Light Body Fitness, Tiffany Construction",2050 Yavapai Dr,"pilates, spa, real estate & construction,  construction and remodeling, breweries",Sedona,US,86336,AZ,Arizona,,
Linda's Bar and Grill,211 Bartow Dr,"Cocktail Lounges, Restaurant, food and drink, drinking, Restaurants, Breweries & Brew Pubs, recreation, Cocktail Lounge Restaurants, Bar & Grill Restaurants",Sierra Vista,US,"85635-1803, 85635",AZ,Arizona,31.55359,-110.29711
Lumberyard Brewing Co.,5 S San Francisco St,"American Restaurant, Brewery and American Restaurant, Brewery",Flagstaff,US,86001,AZ,Arizona,,
Mad Hatter Brew Pub,502 S College Ave,"Restaurant, Restaurant, Brewery, and Pub Downtown Tempe, Restaurant, Brewery, and Pub, Pub, Brewery",Tempe,US,85281,AZ,Arizona,33.4252363,-111.9349487
Majerle's Sports Grill,24 N 2nd Saint (at Washington St),"Sports Bar, Brewery",Phoenix,US,85004,AZ,Arizona,33.448643,-112.071453
Mcfate's Tap + Barrel,7337 E Shea Blvd,Brewery,Scottsdale,US,85260,AZ,Arizona,,
Mother Road Brewing Co,207 W Phoenix Ave,"Food & Dining, Beverages, Brewers",Flagstaff,US,86001,AZ,Arizona,35.197004,-111.652053
Mother Road Brewing Company,7 S Mikes Pike,"Brewery, Beer Garden, and Pizza Place",Flagstaff,US,86001,AZ,Arizona,35.19695,-111.65259
Mudshark Brewing Co,1625 Mesquite Ave,"Food & Dining, Beverages, Breweries, U.S., Lake Havasu City,  AZ, Malt Beverages, Lake Havasu City Brewers",Lake Havasu City,US,86403-5646,AZ,Arizona,34.476313,-114.344681
Mudshark Brewing Company,210 Swanson Ave,"Pubs, Restaurants, Breweries, Brewery",Lake Havasu City,US,86403,AZ,Arizona,34.468568,-114.341724
Nachard Beverage Co,1701 Short St,"Food & Dining, Beverages, Breweries, wholesale, manufacturing, food, mfg, ale, alcoholic, beverage",Kingman,US,86401,AZ,Arizona,35.205729,-114.023317
Nimbus Bistro,6464 E Tanque Verde Rd (pima),"Brewery, Pub, Food & Dining, Restaurants",Tucson,US,85715,AZ,Arizona,32.24461019,-110.8545184
North Mountain Brewing of Office,519 E Eva St,Breweries,Phoenix,US,85020,AZ,Arizona,33.568543,-112.066364
Northland Beverage Co,3825 E Huntington Dr,", Beer and Ale, Home, Beverages, Flagstaff Beer and Other Fermented Malt Liquors, Breweries, Beer & Ale Distributors, (2), Wholesale Trade-non-durable Goods, Food & Dining,  AZ, (1), Flagstaff, Beer and other fermented malt liquors",Flagstaff,US,86004,AZ,Arizona,35.213801,-111.59355
Northwest Arizona Distributors,2908 E Andy Devine Ave,"Food & Dining, Beverages, Breweries, wholesale, supply, beer, ale",Kingman,US,86401,AZ,Arizona,35.214207,-114.013497
O H S O Brewery-paradise Vly,10810 N Tatum Blvd,Breweries,Phoenix,US,85028,AZ,Arizona,33.583983,-111.978156
O.h.s.o. Eatery + Distillery,15681 N Hayden Rd,"Distillery, New American Restaurant, and Brewery Airpark",Scottsdale,US,85260,AZ,Arizona,,
O’donoghue’s Pub & Grille,20469 N Hayden Rd,Brewery and Bar Greyhawk,Scottsdale,US,85255,AZ,Arizona,,
Oak Creek Brewery & Grill,336 Highway 179 Tlaquepaque,"Food & Dining, Beverages, Breweries",Sedona,US,86336,AZ,Arizona,34.7231,-111.4243
Oak Creek Brewery and Grill,337 Arizona 179,"American Restaurant, Brewery, Bar, Brewery, Bar, and American Restaurant",Sedona,US,86336,AZ,Arizona,34.86251753,-111.7636156
Oak Creek Brewing,2000 2198 Yavapai Dr,Brewery,Sedona,US,86336,AZ,Arizona,34.86625004,-111.7961454
Oak Creek Vinyards & Winery,1555 N Page Springs Rd,"Vineyards, Winery, Brewers, Business Organizations, Wineries",Cornville,US,86325,AZ,Arizona,34.759246,-111.887834
Oggis Pizza & Brewing Co.,8763 E Bell Rd,"Pizza Place, Brewery",Scottsdale,US,85260,AZ,Arizona,,
Ohso Nano Brewery,4900 E Indian School Rd,"Nightclub Information Services, Pubs, Bars & Pubs, Arcades & Amusements, Breweries",Phoenix,US,85018,AZ,Arizona,33.494735,-111.97602
Old Bisbee Brewing Company,200 Review Aly,Brewery,Bisbee,US,85603,AZ,Arizona,31.44289075,-109.913638
Old World Brewery,201 W Lone Cactus Dr,Breweries,Phoenix,US,85027,AZ,Arizona,33.680744,-112.076823
On The Rocks,2515 N Scottsdale Rd,"Cocktail Lounges, Bars, Brew Pubs, Bars & Pubs, Restaurants, Breweries, Bar & Grills, Taverns",Scottsdale,US,85257,AZ,Arizona,33.475734,-111.926018
Outlaw Brewery & Tasting Room,1600 Acoma Blvd W,New American Restaurant and Brewery,Lake Havasu City,US,86403,AZ,Arizona,,
Papago Brewing Co,7107 E Mcdowell Rd (at Scottsdale Rd),"Brewery, Bar",Scottsdale,US,85257,AZ,Arizona,33.46519023,-111.9280565
"Papago Plaza, Papago Brewing Co, Papago Brewing Co.",7107 E Mcdowell Rd,"Take Out Restaurants, Bars, American Restaurants, Brew Pubs, Shopping Mall, Restaurants, Plaza, Gastropub, Beer & Ale, Brewery, Beer Garden, Bar & Grills",Scottsdale,US,85257,AZ,Arizona,33.465668,-111.92875
Pedal Haus Brewery,730 S Mill Ave H 102,"Brewery and Gastropub, Gastropub, Brewery, Brewery and Gastropub Downtown Tempe",Tempe,US,85281,AZ,Arizona,33.42344478,-111.9412075
Phoenix Ale Brewery,3002 E Washington St,"Nightclub Information Services, Hot Dog Restaurants, Burger Restaurants, Brewery and Bar, Brewery, Breweries, Bar",Phoenix,US,85034,AZ,Arizona,33.448417,-112.017042
Praying Monk,7217 E 1st St,"American Restaurant, Spanish Restaurants, Restaurants, Brewery",Scottsdale,US,85251,AZ,Arizona,33.492078,-111.925392
Premier Beverage House,256 W Fry Blvd,"Beer & Wine Stores, Beverage Stores, Liquor Stores, Food & Dining, Beverages, Breweries, Drinking Water, Wine, Retail Shopping, Convenience Stores",Sierra Vista,US,85635,AZ,Arizona,31.55433276,-110.3018813
Public Brewhouse,209 N Hoff Ave,Brewery,Tucson,US,85705,AZ,Arizona,32.223938,-110.96483
Public Market,22 E 2 Saint,"Food & Dining, Beverages, Breweries",Winslow,US,86047,AZ,Arizona,35.2549,-110.3431
Pueblo Vida Brewing Company,115 E Broadway Blvd,Brewery,Tucson,US,85701,AZ,Arizona,,
Pugsy's Place,1135 W Hoover St,"Ajo, Bars & Clubs, Bars & Pubs, Restaurants, drinking, Pubs, Breweries & Brew Pubs, Ajo Pubs, Restaurants & Bars, recreation, Taverns, Entertainment & Arts, Bars / Taverns, food and drink, U.S.,  AZ, Bar & Grills, Bars Pubs & Clubs, Bar & Grill Restaurants",Ajo,US,"85321-2047, 85321",AZ,Arizona,32.376263,-112.872826
Quick Dispensary,1542 E Victory St,"Brewer Equipment Supplies & Services, Beverage Dispensing Equipment Supplies & Repair",Phoenix,US,85040,AZ,Arizona,33.416099,-112.047826
Quick Stop Craft Beer Store,18655 N 7th St,"Breweries, Beer & Ale Distributors, Beer & Ale Retail",Phoenix,US,85024,AZ,Arizona,33.656164,-112.065404
Red White & Brew,4580 S Gilbert Rd D 4,"Food & Dining, Beverages, Breweries",Chandler,US,85249,AZ,Arizona,33.224251,-111.795872
Reddy's Corner Liquor,4402 W Southern Ave,brewery,Laveen,US,,AZ,Arizona,,
Riverbottom Bar,19401 19499 Pinal Pioneer Pkwy,"Brewery, Bar, and American Restaurant",Florence,US,85132,AZ,Arizona,,
Saddle Mountain Brewing Company,15651 W Roosevelt St,"Restaurant, Brewery Central Goodyear",Goodyear,US,85338,AZ,Arizona,33.45641,-112.39565
Sentinel Peak Brewing,4746 E Grant Rd,Breweries,Tucson,US,85712,AZ,Arizona,32.250445,-110.891713
Simple Fix,7057 S Camino Triste,"Tucson, AZ, Machinery & Equipment, Food Products Machinery, Tucson Brewers' and Maltsters' Machinery, Home, Tucson, Industrial And Commercial Machinery And Computer Equipment, Brewers' and maltsters' machinery",Tucson,US,85746,AZ,Arizona,,
Sleepy Dog Brewing Company,1920 E University Dr,"Bars & Clubs, Breweries, Nightlife, Food & Drink",Tempe,US,85281,AZ,Arizona,33.42262,-111.90452
Southwest Homebrew Supplies,3305 E Mcdowell Rd,Brewer Equipment Supplies & Services,Mesa,US,85213,AZ,Arizona,33.466268,-111.759707
Speedy's Discount Liquors,201 W Fort Lowell Rd,"U.s., Tucson Az, Shopping & Stores, Liquor Stores, Tucson Liquor Stores, Food & Dining, Beverages, Breweries, Retail Shopping, Convenience Stores, Tucson,  AZ, recreation, food and drink, liquor & beverages, beer, ale, store",Tucson,US,85705,AZ,Arizona,32.26471,-110.976328
Stainless Brewing Llc,60 W Baseline Rd,"Winemaking Equipment & Supplies, Brew Pubs, Brewer Equipment Supplies & Services, Breweries, Beer & Ale",Mesa,US,85210,AZ,Arizona,33.378996,-111.833412
Superstition Meadery,120 W Gurley Saint Cellar 1,"Wineries & Vineyards, Food & Drink, Brewery",Prescott,US,86301,AZ,Arizona,34.54200237,-112.4695301
Ten Fifty-five Brewing,3810 E 44th St,"Breweries, Food & Drink",Tucson,US,85713,AZ,Arizona,32.185,-110.911446
That Brewery,300 E Cherry St,"Painting Contractors, Industrial Painting Contractors, Brewers",Cottonwood,US,86326,AZ,Arizona,34.733805,-112.025025
The Office Restaraunt & Bar,128 Cortez,Brewery,Prescott,US,86301,AZ,Arizona,34.5428563,-112.468753
The Perch Pub & Brewery,232 S Wall St,"Restaurant, Pub, Brewery",Chandler,US,85225,AZ,Arizona,33.3174,-111.8305
The Shop Beer Co.,922 W 1st St,Brewery,Tempe,US,85281,AZ,Arizona,,
Thunder Canyon Brewery Downtown,220 E Broadway Blvd,"Brewery and Bar Armory Park, Brewery, Bar",Tucson,US,85701,AZ,Arizona,,
Tim Finnegan's Irish Pub,9201 N 29th Ave,"Pub, Brewery, Bar, Pub, Brewery, and Bar, Pub, Brewery, and Bar North Mountain",Phoenix,US,85051,AZ,Arizona,33.56914649,-112.1204303
Tower Liquors,3424 E Thomas Rd,"liquor & beverages, Food & Dining, packaged, food and drink, Beverages, Wholesale Foods, Alcoholic Beverages, Breweries, Liquor Stores, recreation, Beer & Ale Retail",Phoenix,US,85018,AZ,Arizona,33.480598,-112.007264
Two Brothers Taphouse & Brewery,4321 N Scottsdale Rd,Brewery Downtown Scottsdale,Scottsdale,US,85251,AZ,Arizona,,
T'z Market Place,58 San Marcos Plz,"Grocery Stores, Brewers, Wineries, Ethnic Food Markets",Chandler,US,85225,AZ,Arizona,33.304156,-111.842045
Uncle Bear's Brewery and Grill,4921 E Ray Rd,Brewery Ahwatukee Foothills,Phoenix,US,85044,AZ,Arizona,,
Verde Brewing Co,348 S Main St,Brewers,Campverde,US,86322,AZ,Arizona,34.564979,-111.855052
Wanderlust Brewing Co,1519 N Main Saint 102,Brewers,Flagstaff,US,86004,AZ,Arizona,35.202521,-111.618247
What Ale's Ya,6363 W Bell Rd,"Shopping, TV Installation, Satellite Receivers, Satellite TV, Brewer Equipment Supplies & Services, Television & Radio Speakers Service & Repair, TV Service, Satellite Television Equipment Dealers, Satellite Equipment & System Dealers, Televisions, Cable Television Equipment, Digital TV, Technology",Glendale,US,85308,AZ,Arizona,33.638332,-112.1959
Wren House Brewing Company,2125 N 24th St,Brewery,Phoenix,US,85008,AZ,Arizona,,
101 Cider House,31111 Via Colinas,Brewery,Westlake Village,US,91362,CA,California,,
101 North Brewing Company,1304 Scott St,Brewery,Petaluma,US,94954,CA,California,,
21st Amendment Brewery,2010 Williams St,Brewery,San Leandro,US,94577,CA,California,37.7118073,-122.1776581
246 Wine & Brew Tours,300 Crystal Cir,"Tours & Charters, Breweries, Wineries, Liquor Stores",Lompoc,US,93436,CA,California,34.662044,-120.454882
2kids Brewing Co,8680 Miralani Dr,"Breweries, Wineries",San Diego,US,92126,CA,California,32.895989,-117.137664
32 North Brewing Co.,8655 Production Ave,Brewery,San Diego,US,92121,CA,California,32.8827827,-117.1648515
47 Hills Brewing Company,137 S Linden Ave,Brewery,S San Francisco,US,94080,CA,California,,
559 Local Brewing,608 4th St,Brewery Downtown Clovis,Clovis,US,93612,CA,California,,
7 Up Rc Bottling Co,2012 S Pearl St,"Beverage Manufacturers, Bottlers, Breweries",Fresno,US,93721,CA,California,36.722348,-119.775127
8one8 Brewing,8951 De Soto Ave,Brewery,Canoga Park,US,91304,CA,California,,
A & G Intl Inc,1235 Flynn Rd,Brewers,Camarillo,US,93012,CA,California,34.229651,-119.019593
A. Nonini Winery,2640 N Dickenson Ave,"Beverages, civic clubs & organizations, Beverages-Distributors & Bottlers, Brewers, Wine Brokers, drug stores & pharmacies, Wineries, cosmetic dentists, cosmetic & reconstructive surgeons, beauty salons, Fruit & Vegetable Growers & Shippers, Wine",Fresno,US,93723,CA,California,36.774384,-119.97003
Abnormal Beer Co,16990 Via Tazon,brewery,San Diego,US,92127,CA,California,33.023852,-117.085759
Acoustic Ales Brewing Experiment,1795 Hancock St,brewery,San Diego,US,92110,CA,California,32.742987,-117.185717
Adelaida Cellars Inc,5805 Adelaida Rd," alcoholic beverages, manufacturing, Brewers, Wineries, Wine Consultants",Paso Robles,US,93446,CA,California,35.649284,-120.801333
Advance Beverage Co, Po Box 9517,"Food & Dining, Beverages, Breweries",Bakersfield,US,93389,CA,California,35.3538,-119.0615
Aero Brewing Co,140 Cleveland Ave,"Manufacturing, Tools, Hardware and Light Machinery, Non-profit, Social and Membership Organizations, Wholesale and Distribution, Wholesale and Distribution Other, wholesale, food, brewer",Auburn,US,95603,CA,California,38.901223,-121.067931
Aftershock Brewing Co.,28822 Old Town Front St,"Pub, Brewery, Brewery and Pub",Temecula,US,92590,CA,California,,
Alameda Island Brewing Company,1716 Park St,Brewery East End,Alameda,US,94501,CA,California,37.768253,-122.2394
Alcatraz Brewing Co,20 W City Blvd (the Block At Orange),"Brewery, American Restaurant",Orange,US,92868,CA,California,33.78297738,-117.8920072
Alesmith Brewing Company,9990 Alesmith Ct,Brewery,San Diego,US,92126,CA,California,32.8877296,-117.1493835
All About Brewing,700 N Johnson Ave,"Beer Homebrewing Equipment & Supplies, Winemaking Equipment & Supplies, Bars And Lounges, Brewer Equipment Supplies & Services, Retail",El Cajon,US,92020,CA,California,32.804488,-116.971242
Almanac Beer Co,2325 3rd St,"Ca"">Brewery, Ca"">Office",San Francisco,US,94107,CA,California,37.76040071,-122.3878412
Alpine Beer Co,2351 Alpine Blvd,"Brewers, Wineries",Alpine,US,91901,CA,California,32.835386,-116.76588
Alpine Beer Company Pub,1347 Tavern Rd,"American Restaurant, Brewery",Alpine,US,91901,CA,California,32.83713459,-116.7761768
Amador Vintners Assn,9310 Pacific St,"Professional Services, Chambers Of Commerce,  CA, Management Consulting Services, Brewers, Marketing Consultants, Business Organizations, Wineries, Plymouth",Plymouth,US,"95669, 95669-8400",CA,California,38.475316,-120.849813
Amcan Beverages Inc,1201 Commerce Blvd,"Juice Manufacturers, Beverage Manufacturers, Coffee & Tea Manufacturers, Breweries",Americancanyon,US,94503,CA,California,38.190829,-122.274542
American Fruits & Flavors,10725 Sutter Ave,"manufacturing, Beverage Manufacturers,  nonalcoholic beverages, Breweries, Flavoring Extract Manufacturers",Pacoima,US,91331,CA,California,34.264558,-118.419574
American Home Brewing Supply Inc,9295 Chesapeake Dr,Brewer Equipment Supplies & Services,San Diego,US,92123,CA,California,32.837446,-117.128434
Amplified Ale Works,4150 Mission Blvd,Brewery,San Diego,US,92109,CA,California,32.79107169,-117.2543335
Anacapa Brewing Company,472 E Main St,Brewery,Ventura,US,93001,CA,California,34.280678,-119.29359
Anaheim Brewery,336 S Anaheim Blvd,"Brewery The Colony, Restaurant, Brewery",Anaheim,US,92805,CA,California,33.832695,-117.91244
Anchor Brewing Co, Terminal 3 (sfo Airport),"Brewery, American Restaurant",San Francisco,US,94128,CA,California,37.618846,-122.385839
Anchor Brewing Company,1705 Mariposa St,Brewery,San Francisco,US,94107,CA,California,37.763504,-122.401353
Anderson Valley Brewing Company,17700 Hwy 253,Brewery and Disc Golf,Boonville,US,95415,CA,California,39.00074292,-123.3567667
Andretti Winery,4162 Big Ranch Rd,"Vineyards, Vineyard, Winery, Brewers, Wineries",Napa,US,94558,CA,California,38.354749,-122.30751
Anheuser Busch Inc.,2945 Townsgate Rd,Brewery,Westlake Village,US,91361,CA,California,,
Arcana Brewing Co,5621 Palmer Way,brewery,Carlsbad,US,92010,CA,California,,
Arcata Brews Llc,856 10th St,"Securities, Investments, Business Management Consultants, Brewers, Wineries",Arcata,US,95521,CA,California,40.870084,-124.087298
AREA 51 Craft Brewery,7123 Arlington Ave,"CA"">Brewery, CA>Brewery",Riverside,US,92503,CA,California,33.95112976,-117.4415731
Armstrong Brewing Company,415 Grand Ave,Brewery,S San Francisco,US,94080,CA,California,37.6556423,-122.4131206
Arroyo Robles Winery,1317 Park St,"Wineries, Brewers",Pasorobles,US,93446,CA,California,35.628114,-120.690467
Artifex Brewing Company,919 Calle Amanencer,Brewery Rancho San Clemente,San Clemente,US,92673,CA,California,,
Aztec Brewing Co / Seven Nations Brewing Co,2330 La Mirada Dr,brewery,Vista,US,92083,CA,California,,
B Ryders Sports Bar and Grill,7401 White Ln,"sports bar, rock club, brewery",Bakersfield,US,93309,CA,California,35.318151,-119.085633
B2o Bar & Grill,8841 Las Tunas Dr,Brewery and Bar,Temple City,US,91780,CA,California,,
Backstreet Brewery,14450 Culver Dr,Brewery and Pub,Irvine,US,92604,CA,California,,
Bad Dog Ale House,226 Standard St,"Brew Pubs, Bars & Pubs, Restaurants, Bars and Clubs, American, Brewery, Breweries and Wineries, El Segundo Restaurants",Elsegundo,US,90245,CA,California,33.918557,-118.414389
Baeltane Brewing,401 Bel Marin Keys Blvd,"Brewery, Brewery Southeast Novato",Novato,US,94949,CA,California,38.07479991,-122.5382105
Ball Corporation,14270 Ramona Ave,"Plastic & Plastic Products Wholesale & Manufacturers, Metal Products Wholesale & Manufacturers, Breweries",Chino,US,91710,CA,California,33.996105,-117.706769
Ballast Point Brewing & Spirits,9045 Carroll Rd,brewery,San Diego,US,92121,CA,California,,
Ballast Point Brewing Co,10051 Old Grove Rd,Breweries,San Diego,US,92131,CA,California,32.898778,-117.111104
Ballast Point Tasting Room and Kitchen,28551 Rancho California Rd,Brewery,Temecula,US,92590,CA,California,,
Bang The Drum Brewery,950 Orcutt Rd,Brewery and Performing Arts Venue,San Luis Obispo,US,93401,CA,California,,
Bar None Inc,1302 Santa Fe Dr,"Beverage Manufacturers, Flavoring Extract Manufacturers, Syrups Manufacturers, Sugar Manufacturers, Breweries",Tustin,US,92780,CA,California,33.720036,-117.83266
Barbara's At The Brewery,620 Moulton Ave No 110,"Bars and Clubs, Restaurants, Services, American, Bistro, Brewery, Burgers, Eclectic, International, Mexican, New American, Pizza, Seafood, Steak House, Steakhouse",Los Angeles,US,90031,CA,California,,
Barbarella Bar,2601 Hyperion Ave,"barbecue, breweries & brew pubs, cocktail lounges, night clubs & live music, restaurants, Restaurants, Pizza",Los Angeles,US,90027-3318,CA,California,34.105976,-118.272988
Barebottle Brewing,1525 Cortland Ave,Brewery Bernal Heights,San Francisco,US,,CA,California,,
Bargetto Winery,3535 N Main St,"Brewers, Winery, Wineries",Soquel,US,95073-2530,CA,California,36.995171,-121.954576
Barley & Hops Tavern,3688 Bohemian Hwy,"Restaurant, Pub and Brewery",Occidental,US,95465,CA,California,38.40695,-122.94773
Barley & Wine,2307 Oakdale Rd,"Winemaking Equipment & Supplies, Wineries Equipment & Supplies, Brewer Equipment Supplies & Services, Wine & Distilled Beverages Retail",Modesto,US,95355,CA,California,37.675674,-120.957883
"Barley Forge Brewing Co, Barley Forge Brewing Co.",2957 Randolph Ave,"Winemaking Equipment & Supplies, Pubs, Brewer Equipment Supplies & Services, Breweries, Brewery",Costa Mesa,US,92626,CA,California,33.678548,-117.88794
Barn Brewery,El Cajon Blvd,Brewery,San Diego,US,,CA,California,,
Barn Inc,2850 El Cajon Blvd,Breweries,San Diego,US,92104,CA,California,32.755536,-117.132484
Barney's Beanery,250 N First St,"Sports Bar, American Restaurant, Brewery",Burbank,US,91502,CA,California,34.1811248,-118.3117837
Barrel Harbor Brewing,2575 Pioneer Ave,"Beer Homebrewing Equipment & Supplies, Brewery, Beer & Ale, Liquor Stores",Vista,US,92081,CA,California,33.148506,-117.22094
Barrel Head Brewhouse,1785 Fulton St,"Brewery, Gastropub",San Francisco,US,94117,CA,California,37.77584073,-122.4460852
Barrelworks,620 Mcmurray Rd,"Brewery, Beer Store, and Bar",Buellton,US,93427,CA,California,34.61986442,-120.1878986
Bartlett Brewing Co.,242 Ofarrell St,Brewery Downtown San Francisco-Union Square,San Francisco,US,94102,CA,California,,
Bask Cellars,2436 Morrison Ln,"Wineries, Brewers",Fairfield,US,94534,CA,California,38.267984,-122.116616
Batch Craft Soda,18543 Yorba Linda Blvd 241,"Beverage Manufacturers, Breweries",Yorbalinda,US,92886,CA,California,33.889863,-117.80999
Bay Bridge Brewing,688 Marsat Ct,Brewery,Chula Vista,US,91911,CA,California,,
Bbt Inox Ltd,5041 Coolidge Ave Ste A,"California|Culver City|Wholesale Trade-durable Goods|Industrial machinery and equipment|Brewery products manufacturing machinery, commercial|, Home, Culver City, Wholesale Trade-durable Goods, Industrial machinery and equipment, Brewery products manufacturing machinery, commercial",Culver City,US,90230,CA,California,,
Bct Brewing Project,11620 Sterling Ave,Brewery,Riverside,US,92503,CA,California,,
"Beach Chalet Brewery Restaurant, Beach Chalet Brewery & Restaurant",1000 Great Hwy,"Bars, Bars & Clubs, American Restaurants, Brew Pubs, Bars & Pubs, Restaurants, Brewery, Scenic Lookout, and American Restaurant, Hamburgers & Hot Dogs, Family Style Restaurants, Bar & Grills, French Restaurants, Taverns",Sanfrancisco,US,94121,CA,California,37.769385,-122.510549
Beach City Brewery,7631 Woodwind Doctor B,Brewers,Huntingtonbeach,US,92647,CA,California,33.704504,-117.995402
"Beachwood Bbq & Brewing, Michael's Pizzeria",210 E 3rd St,"American Restaurants, Caterers, Brew Pubs, Brewery and BBQ Joint, Restaurants, Barbecue Restaurants, Brewery and BBQ Joint Promenade, restaurant",Long Beach,US,90802,CA,California,33.76998608,-118.1910281
Beachwood Blendery,247 Long Beach Blvd Long Beach Ca 90802,Brewery,Long Beach,US,,CA,California,,
Bear Valley Hydroponics,17455 Bear Valley Rd,"Lawn & Garden Equipment & Supplies Retail, Hydroseeding Services, Winemaking Equipment & Supplies, Brewer Equipment Supplies & Services, Hydroponics Equipment & Supplies",Hesperia,US,92345,CA,California,34.470971,-117.282635
Beau Vigne,210 Camino Oruga,"Beverage Manufacturers, Breweries",Napa,US,94558,CA,California,38.22683,-122.253749
Beer & Wine Makers of America,1040 N 4th St,"Winemaking Equipment & Supplies, Brewer Equipment Supplies & Services",San Jose,US,95112,CA,California,37.357555,-121.902005
Beer Belly Fermentation Supply,371 Windsor River Rd,"Winemaking Equipment & Supplies, Brewer Equipment Supplies & Services, General Merchandise Stores, Beer & Ale Retail",Windsor,US,95492,CA,California,38.547404,-122.81615
Beerwhich.com,801 Clayton St,"facebook applications, craft beer, mobile, Mobile/wireless, Beer, Facebook App, Beer App, Micro Brewery",San Francisco,US,94117,CA,California,,
Belching Beaver North Park,4223 30th St,"Take Out, Breweries, Microbreweries, Wineries",San Diego,US,92104,CA,California,32.754603,-117.130007
Belching Brewery,1334 Rocky Point Dr,Brewery Ivey Ranch - Rancho Del Oro,Oceanside,US,92056,CA,California,,
Belmont Brewing Company,25 39TH Pl 25,"Brewers, Wineries",Longbeach,US,90803,CA,California,33.75965,-118.148026
Benchmark Brewing Co,6190 Fairmount Ave,"Brewery, Breweries, Wineries",San Diego,US,92120,CA,California,32.787495,-117.101652
Benziger Family Winery,1883 London Ranch Rd,"Wineries, Vineyards, Brewers, Winery Tours",Glenellen,US,95442,CA,California,38.363129,-122.533523
Berghold Vineyards,17343 Cherry Rd,"Wineries, Vineyards, Brewers",Lodi,US,95240,CA,California,38.137946,-121.210797
Berryessa Brewing Company,27260 Highway 128,Brewery,Winters,US,95694,CA,California,,
Better Brands Int,1550 Parkside Dr,"Beverage Manufacturers, Breweries, Wineries",Walnutcreek,US,94596,CA,California,37.911885,-122.066699
Better Energy Ideas,1527 W 13th St,"Other Instrument Manufacturers, Beverage Manufacturers, Brewers, Mergers & Acquisitions, Breweries, Automotive Repair, Glass Manufacturers, Window Coating Manufacturers",Upland,US,91786,CA,California,34.110524,-117.679419
Beverage Factory,13651 Danielson Pwy,"Brewers, Wholesale Beverage Dispensing Equipment",San Diego,US,92126,CA,California,32.918476,-117.13824
Beverage People,1845 Piner Rd D,"Winemaking Equipment & Supplies, Brewer Equipment Supplies & Services",Santa Rosa,US,95403,CA,California,38.46847,-122.746609
Bevmo,103 S Mills Rd,"Liquor Stores, Food Stores, Wine Stores, Breweries",Ventura,US,93003,CA,California,34.272332,-119.247613
Big Bear Mountain Brewery,40260 Big Bear Blvd,"Brewery, Bar",Big Bear Lake,US,92315,CA,California,,
Big Johnson's Brewing Co.,33961 Mariana Dr,Brewery,Dana Point,US,92629,CA,California,,
Big Stump Brewing Co.,1716 L St,Brewery,Sacramento,US,95811,CA,California,,
Bike Dog Brewing Co.,2534 Industrial Blvd,Brewery,W Sacramento,US,95691,CA,California,,
Birdstone Winery,9400 Rd 36,"Wineries, Brewers",Madera,US,93636,CA,California,36.885872,-119.895653
Bison Brewing Company,2030 5th St,"Office and Brewery West Berkeley, Brewery, Office",Berkeley,US,94710,CA,California,,
Bj's,5258 E Second St,"Pub Food, Bars and Clubs, Breweries and Wineries, Restaurants, American, Bar Food, Brewery, Burgers, Deli, Diner, Eclectic, International, Pizza, Sandwiches, Steak House, Steakhouse, Traditional, American (New), Breweries",Long Beach,US,90803,CA,California,33.759741,-118.133719
Bj's Restaurant & Brewery,17615 Castleton Saint (at Hanover Dr),"American Restaurant, Pizza Place, Brewery",City Of Industry,US,91748,CA,California,33.99442318,-117.9191877
Bj's Restaurant & Brewhouse,101 N Brand Blvd (at Broadway),"Brewery, Pizza Place, American Restaurant",Glendale,US,91203,CA,California,34.1465157,-118.2551434
Bj's Restaurant and Brewhouse,101 N Brand Blvd,"American Restaurant, Pizza Place, Brewery",Glendale,US,91203,CA,California,,
"Bj's Restaurant Brewhouse, Bj's Restaurant and Brewhouse",10690 N De Anza Blvd,"American Restaurant, American Restaurant, Pizza Place, and Brewery North De Anza Boulevard, Restaurant, Brewery, Pizza Place, American Restaurant, Pizza Place, and Brewery",Cupertino,US,95014,CA,California,37.331177,-122.031639
Bj's Restaurants Inc,5500 Grossmont Center Dr,"Restaurantrestaurant, Brewerybrewery",La Mesa,US,91942,CA,California,,
Black Coyote Chateau Llc,2400 N 3rd Ave,"Wineries, Brewers",Napa,US,94558,CA,California,38.319511,-122.22671
Black Dragon Brewery,175 W Main St,Brewery,Woodland,US,95695,CA,California,38.67714557,-121.7923663
Black Hammer Brewing,544 Bryant St,"Brewery SoMa, Brewery",San Francisco,US,94107,CA,California,,
Black Market Brewing Co,41740 Enterprise Cir N,"brewery, bar",Temecula,US,92590,CA,California,,
Black Ops Brewing,2985 N Burl Ave,Brewery,Fresno,US,93727,CA,California,,
Black Sands Brewery,701 Haight St,"Brewery, Caf, and Coffee Shop",San Francisco,US,94117,CA,California,37.7714731,-122.4337876
"Black Sheep Brewery, Inc.",101 N Coast Hwy,Brewers,Oceanside,US,92054,CA,California,33.19504,-117.379385
Blackstone Winery Tasting Room,800 S Alta St,"Wineries, Brewers",Gonzales,US,93926,CA,California,36.500813,-121.433931
Block Butcher Bar,1050 20th St,"Breweries, German Restaurants",Sacramento,US,95811,CA,California,38.576322,-121.48023
Blossom Valley Foods,20 Casey Ln,"mfg, Beverages Wholesale & Manufacturers, Shopping, Grocery Stores, Breweries, Manufacturing, Food and Dairy Product Manufacturing and Packaging, Flavoring Extract Manufacturers, mix, Beverage Manufacturers, Bottlers, beverage, Canned Food Manufacturers, wholesale, vinegar, food, cocktail, gourmet",Gilroy,US,95020,CA,California,37.018228,-121.573357
Blue Collar Brewery Bar & Grll,6741 E Princeton Ave,Brewers,Fresno,US,93727,CA,California,36.775878,-119.66878
Blue Frog Brewing Company,1740 Travis Blvd,Brewery,Fairfield,US,94533,CA,California,38.25894105,-122.0590067
Blue Monkey Coconut,875 Mahler Rd,"Beverage Manufacturers, Breweries",Burlingame,US,94010,CA,California,37.595684,-122.368445
Blue Note Brewing Company,750 Dead Cat Aly,"Beer & Ale-Wholesale & Manufacturers, Restaurants, Brewery and Beer Garden",Woodland,US,95695,CA,California,38.678097,-121.77122
Blue Palms Brewhouse,6124 Hollywood Blvd (at Gower St),"Brewery, Bar",Los Angeles,US,90028,CA,California,34.101549,-118.3231843
Board & Brew,243 Melrose Ave,Brewers,Encinitas,US,92024,CA,California,33.053349,-117.296948
Bobo Drinks,779 Story Rd,"Beverage Manufacturers, Breweries",Sanjose,US,95122,CA,California,37.329459,-121.859278
Bolster's Hilltop Ranch,2000 Larsen Dr,"Livestock, Grocery Stores, Produce Markets, Brewers, Wineries",Camino,US,95709,CA,California,38.749502,-120.669466
Bolt Brewery,1971 India St,"Fasteners Wholesale & Manufacturers, Breweries",San Diego,US,92101,CA,California,32.725122,-117.168705
Bon Marché Brasserie & Bar,1355 Market St,"French Restaurant, Brewery",San Francisco,US,94103,CA,California,,
Bonaventure Brewing Co,404 S Figueroa Saint (at 4th St),"Brewery, American Restaurant",Los Angeles,US,90071,CA,California,34.05198397,-118.2564111
Boneshaker Community Brewery,4810 Granite Dr,Brewery and Performing Arts Venue,Rocklin,US,95677,CA,California,,
Bonita,2360 Alamo Pintado Ave,"Breweries and Wineries, Clothing",Losolivos,US,93441,CA,California,34.665534,-120.116546
Boomtown Brewery,700 Jackson St,Brewers,Losangeles,US,90012,CA,California,34.050764,-118.233216
Boone's Winery,600 Yosemite Blvd,"Brewers, Wineries",Modesto,US,95354,CA,California,37.637141,-120.981724
Bootlegger Brewery,401 S Richman Ave,"Brewers, Glue, Air Fresheners, Deordorant, Soap",Fullerton,US,92832,CA,California,33.868251,-117.933222
Booze Brothers Brewery,2545 Progress St,"Performing Arts Venue, Brewery, Brewery and Performing Arts Venue",Vista,US,92081,CA,California,,
Border X Brewing,2181 Logan Ave,Brewery and Beer Garden,San Diego,US,92113,CA,California,,
Borra Vineyards,1301 E Armstrong Rd,"Vineyards, Brewers, Alcoholic Beverages, Wineries, Manufacturing",Lodi,US,95242,CA,California,38.090191,-121.300664
Boulder Creek Brewery & Cafe,13101 Highway 9,"Restaurants, Pubs, Bars & Pubs, Breweries",Boulder Creek,US,95006,CA,California,37.124115,-122.122086
Boulder Creek Brewery Cafe,13040 Highway 9,"Restaurant, Brewery and American Restaurant",Boulder Creek,US,95006-9154,CA,California,37.12316,-122.1216
Brassfield Estate Winery,10915 High Valley Rd,"Vineyards,  alcoholic beverages, Beverages, Retail Other, Wine Brokers, Manufacturing, Wineries, Wholesale Wines,  restaurants and bars                                                                            manufacturing,  retail other                                                                            retail,  CA, Clearlake Oaks, Food & Dining, Clearlake Oaks Wholesale Wines, wholesale, food, Restaurants and Bars, Brewers, Winery, Alcoholic Beverages, Wine and Distilled Alcoholic Beverages, Retail, Liquor Stores, Tourist Attractions, Wine, retail",Clearlake Oaks,US,95423,CA,California,39.052868,-122.70429
Breakwater Brewing Co.,101 N Coast Hwy C 140,Brewery,Oceanside,US,92054,CA,California,33.19525078,-117.3789019
Brew Crew Inc,11626 Sterling Ave,"Brewery, Brewery La Sierra South",Riverside,US,92503,CA,California,,
Brew It Yourself,5640 Kearny Mesa Rd,"Winemaking Equipment & Supplies, Brewer Equipment Supplies & Services, Breweries",San Diego,US,92111,CA,California,32.836644,-117.138178
Brew Kitchen Alehouse,10708 Los Alamitos Blvd,Brewery,Los Alamitos,US,90720,CA,California,,
"Brew Project, The Brew Project",3683 5th Ave,"New American Restaurant, Gastropub, Breweries, Bar, restaurant",San Diego,US,92103,CA,California,32.744797,-117.160252
Brew Wizards,18228 Parthenia St,"Brewers, Wineries",Northridge,US,91325,CA,California,34.228409,-118.530682
Brewbakers,7242 Heil Ave,"Brewers, Wineries",Huntingtonbeach,US,92647,CA,California,33.722455,-118.001805
Brewbakers Brewing Company,219 E Main St,Brewery and Pub,Visalia,US,93291,CA,California,36.33000325,-119.2907247
Brewco Manhattan Beach,124 Manhattan Beach Blvd,Brewery and Bar,Manhattan Beach,US,90266,CA,California,33.88451154,-118.4110308
Brewer Concrete,14390 Poway Rd,"Santee Concrete Contractors, Brewer Concrete",Poway,US,92064,CA,California,,
Brewer Metal Products,497 Edison Ct Ste C,"Vacaville Art Metal Work, Brewer Metal Products",Fairfield,US,94534,CA,California,,
Brewery Gulch Inn,9401 N Highway 1,"Bars & Pubs, Pubs, Bed & Breakfasts, Hotels, Breweries, Hotels & Motels",Mendocino,US,95460,CA,California,39.292769,-123.793872
Brewery Tours of Temecula,30520 Rancho California Rd,Brewery and Transportation Service Margarita Village - Temeku Hills,Temecula,US,92591,CA,California,,
Brewlab,1462 Hampshire St,"Brewery and Event Space, Brewery and Event Space Mission District",San Francisco,US,94110,CA,California,,
Brewyard Brewing Company,906 Western Ave,Brewery,Glendale,US,91201,CA,California,,
Brix 42,42 S De Lacey Ave,"Brewery, Steakhouse, and Burger Joint, burger joint",Pasadena,US,91105,CA,California,,
Broken Drum Brewery,1132 4th St,"Wholesale Alcohol, Brewers, Brewery, Wineries",San Rafael,US,94901,CA,California,37.973329,-122.529
Brouwerij West,110 E 22nd St,"Brewery, Brewery Coastal San Pedro",San Pedro,US,90731,CA,California,33.72744472,-118.2802382
Bruery Llc,715 Dunn Way,Brewers,Placentia,US,92870,CA,California,33.861379,-117.879999
Bruery Terreux Tasting Room,1174 N Grove St,Brewery,Anaheim,US,92806,CA,California,,
Bruery Warehouse,1174 N Grove Saint Anaheim Ca 92806,Brewery,Anaheim,US,,CA,California,,
Brutocao Cellars,1400 Highway 175,"Churches, Brewers, Management Services, Wineries",Hopland,US,95449,CA,California,38.977292,-123.098776
Bsg Wine,474 Technology Way,"Winemaking Equipment & Supplies, Beer Makers Equipment & Supplies, Wineries Equipment & Supplies, Brewer Equipment Supplies & Services, Winery Equipment & Supplies",Napa,US,94558,CA,California,38.22473,-122.271328
Bullet Proof Brands Co Inc,11437 Sunrise Gold Cir,"Beverage Manufacturers, Breweries",Ranchocordova,US,95742,CA,California,38.597581,-121.262063
Butcher's Brewing,9963 Prospect Ave,Brewery and Pub,Santee,US,92071,CA,California,32.83201835,-116.979548
Buttonwood Farm Winery & Vnyrd,1500 Alamo Pintado Rd,"Vineyards, Farms, Brewers, Wineries",Solvang,US,93463,CA,California,34.621541,-120.114037
Byington Vineyard & Winery,21850 Bear Creek Rd,"Vineyards, Vineyard, Brewers, Winery, Wineries",Losgatos,US,95033,CA,California,37.169705,-122.053343
C M Brewing Technologies,43084 Rancho Way,Brewers,Temecula,US,92590,CA,California,33.503856,-117.159145
Cambrian Brewing Co,4250 Leigh Ave,brewery,San Jose,US,,CA,California,,
Campbell Brewing Company,200 E Campbell Ave,Brewery,Campbell,US,95008,CA,California,37.28679,-121.94644
Capella Flavors Inc,1291 Linda Vista Dr,"Coffee & Tea, Beverage Manufacturers, 0 complaints closed with bbb in last 3 years , Breweries, Flavoring Extracts, Internet Shopping, Flavoring Extract Manufacturers,  0 closed in last 12 months",Sanmarcos,US,92078,CA,California,33.137234,-117.194401
Capistrano Brewing Co,2000 Main Saint A,Brewers,Irvine,US,92614,CA,California,33.68434,-117.850674
Capistrano Brewing Co.,31738 Rancho Viejo Rd,"Brewery, Bar",San Juan Capistrano,US,92675,CA,California,,
Capital Beverage Co,71 Loren Ave,"Food & Dining, Beverages, Breweries, Chico, Wholesale Trade-non-durable Goods, Beer and ale, Beer and other fermented malt liquors, wholesale, supply, beer, ale, , Home",Chico,US,95928,CA,California,39.702516,-121.789641
Cellar 3,12260 Crosthwaite Cir,Beer Garden and Brewery,Poway,US,92064,CA,California,32.940365,-117.03432
Cellarmaker Brewing Company,1150 Howard St,Brewery,San Francisco,US,94103,CA,California,37.77714795,-122.4106538
Central Coast Brewing,1422 Monterey St,Brewery and Bar,San Luis Obispo,US,93401,CA,California,35.28579699,-120.6556452
Chalk Hill Estate Vineyards,10300 Chalk Hill Rd,"Vineyards, Brewers, Transportation Companies, Wineries, Wine & Distilled Beverages Retail",Healdsburg,US,95448,CA,California,38.572225,-122.774398
Chapman Crafted Beer,123 N Cypress St,"Brewery, Beer Bar",Orange,US,92866,CA,California,,
"Chili's Grill & Bar, Karl Strauss Brewery & Restaurant",10448 Reserve Dr,Brewery and American Restaurant,San Diego,US,92127,CA,California,,
Chino Valley Brewery,1630 E Francis St,Brewery,Ontario,US,91761,CA,California,,
Chouinard Vineyards & Winery,33853 Palomares Rd,"Vineyards, Brewers, Wineries",Castrovalley,US,94552,CA,California,37.637595,-121.960782
Chuckalek Biergarten,3139 University Ave,Brewery,San Diego,US,92104,CA,California,,
Chuckalek Independent Brewers,2330 Main St,Brewery,Ramona,US,92065,CA,California,,
Chula Vista Brewery,1090 3rd Ave,"Food & Dining, Beverages, Breweries",Chula Vista,US,91911,CA,California,32.612391,-117.068763
Circle Bar,2926 Main St,"Lounge, food and drink, Restaurants, Bars and Clubs, Breweries & Brew Pubs, Barbecue, Santa Monica, Venues, Bar, Nightclub, recreation, Bar & Grill Restaurants",Santa Monica,US,90405,CA,California,33.99893,-118.48052
Cismontane Brewing,29851 Aventura,"Bars & Pubs, Breweries, Wineries",Rancho Santa Margarita,US,92688,CA,California,33.63614,-117.60955
Cismontane Santa Ana,1409 E Warner Ave,Brewery,Santa Ana,US,92705,CA,California,,
Clancy's Bar & Grill,2191 S Harbor Blvd,"Sports Bar, American Restaurant, and Brewery",Anaheim,US,92802,CA,California,,
Clandestine Brewing,1805 Little Orchard St,brewery,San Jose,US,95125,CA,California,37.306452,-121.873117
Claudia Springs Winery,2160 Guntley Rd,"manufacturing, wholesale, Business Services, food, Brewers, Wineries, Business Services Other, winery",Philo,US,95466,CA,California,39.127863,-123.513064
Cleophus Quealy Beer Company,448 Hester St,Brewery,San Leandro,US,94577,CA,California,,
Cloones Pub,1189 Laurel St,"Restaurant, Restaurants, Bars & Pubs, Bar White Oaks, Breweries",San Carlos,US,94070,CA,California,37.499034,-122.251986
Clos Du Val Winery,5330 Silverado Trl,"Vineyards, Vineyard, Winery, Brewers, Wineries",Napa,US,94558,CA,California,38.387201,-122.313541
Coca Cola Enterprises,86375 Industrial Way,"Beverage Manufacturers, Business Services, NEC, Bottlers, Bottle Manufacturers, Coachella Business Services (Unclassified), Wholesale Bottles, Breweries, Other Business Services, Coachella, CA",Coachella,US,"92236-2729, 92236",CA,California,33.667722,-116.153526
Coca-cola Co,14655 Wicks Blvd,"mfg, manufacturing, Food And Kindred Products, Breweries, San Leandro, Bottled and canned soft drinks, soft, fro, Beverage Manufacturers, syrup, Soft drinks: packaged in cans, bottles, etc., wholesale, food, solrjson:[\\""California, \\"",\\""Home\\"",\\""California\\"",\\""San Leandro\\"",\\""Food And Kindred Products\\"",\\""Bottled and canned soft drinks\\"",\\""Soft drinks: packaged in cans, bottles, etc.\\"",\\""wholesale\\"",\\""manufacturing\\"",\\""food\\"",\\""soft\\"",\\""mfg\\"",\\""syrup\\"",\\""fro\\",Sanleandro,US,"94577, 94579",CA,California,37.695834,-122.164204
Coca-cola Refreshments,2121 E Winston Rd,"Beverage Manufacturers, Bottlers, Breweries",Anaheim,US,92806,CA,California,33.815422,-117.886539
Colibri Ridge Winery and Vineyard,6100 Gray Rock Rd,"Wineries, Vineyards, Brewers",Somerset,US,95684,CA,California,38.606459,-120.6464
Concord Homes Inc,2020 Grant St,"Concord,  CA, Winemaking Equipment & Supplies, Concord Homes Inc, Independent Living Services, Brewer Equipment Supplies & Services, Concord Retirement Apartments and Hotels, Apartments, Operators of Apartment Buildings, Real Estate, Pleasant Hill General Contractors, Concord Homes Inc.",Concord,US,94520,CA,California,37.978378,-122.033792
Congregation Ale House,619 N Azusa Ave,"Gastropub, Bar, Brewery",Azusa,US,91702,CA,California,34.13239365,-117.907695
Connie's Bar,543 N Avalon Blvd,"Wilmington Los Angeles, Venues, Bar, Breweries & Brew Pubs, Cocktail Lounges, Restaurants, Bar & Grill Restaurants, Cocktail Lounge Restaurants, Bars and Clubs, Bars & Pubs, Taverns",Wilmington,US,90744,CA,California,33.77668,-118.262558
Constellation Wines,4614 W Turner Rd,"Wineries, Brewers",Lodi,US,95242,CA,California,38.143702,-121.372202
Cooperage Brewing Company,981 Airway Ct,Brewery,Santa Rosa,US,95403,CA,California,38.47522521,-122.7358022
Coronado Brewing Co,5245 Lovelock St,"Beer Homebrewing Equipment & Supplies, Winemaking Equipment & Supplies, Brewer Equipment Supplies & Services, Breweries, Beer & Ale",San Diego,US,92110,CA,California,32.764215,-117.202011
Coronado Brewing Company,170 Orange Ave,"American Restaurant, brewery, Brewery",Coronado,US,92118,CA,California,32.697727,-117.173185
Corralitos Brewing Company,2536 Freedom Blvd,Brewery,Watsonville,US,95076,CA,California,,
Cougar Vineyard & Winery,39870 De Portola Rd,"Vineyards, Transportation Companies, Brewers, Wineries, Wine & Distilled Beverages Retail",Temecula,US,92592,CA,California,33.541624,-117.007009
"Council Brewing Co, Council Brewing Co.",7705 Convoy Ct,"Brewery Kearny Mesa, Brewery",San Diego,US,92111,CA,California,,
Craft Brewing Company,530 Crane St,Brewery Lake Elsinore Business District,Lake Elsinore,US,92530,CA,California,,
Craftsman Brewing,1260 Lincoln Ave,"brewery, Brew Pubs, Restaurants, Brewery, Beer & Ale, Taverns",Pasadena,US,91103,CA,California,34.16778,-118.15957
Creekside Brewing,1040 Broad St,"Brewery, Bar, and Gastropub",San Luis Obispo,US,93401,CA,California,35.27928467,-120.6646762
Criveller California Corp,185 Grant Ave,"Healdsburg, CA, Machinery & Equipment, Food Products Machinery, Healdsburg Brewers' and Maltsters' Machinery, Healdsburg,  CA",Healdsburg,US,95448-9539,CA,California,,
Crystal Geyser Water Co.,55 Francisco St,"Beverage Manufacturers, Breweries",Sanfrancisco,US,94133,CA,California,37.805634,-122.405481
Culture Brewing Co.,111 S Cedros Ave,"Brewery and Beer Garden, Brewery, Beer Garden",Solana Beach,US,92075,CA,California,32.99160283,-117.2706801
"Culture Brewing Co., Culture Brewing Co",4845 Newport Ave,"Brewery Ocean Beach, Brewery",San Diego,US,92107,CA,California,32.74514165,-117.248353
Culver Beer Company,2719 Loker Ave W,Brewery,Carlsbad,US,92010,CA,California,,
Culver City Home Brew Supply,4358 Sepulveda Blvd,"Beer-home Brewing Equipment & Supplies, Brewer Equipment Supplies & Services, Brewers' Equipment & Supplies",Culver City,US,"90230, 90230-4722",CA,California,34.003494,-118.407556
Cutler Winery,38558 Road 128,"Wineries, Brewers",Cutler,US,93615,CA,California,36.48923,-119.286557
Cuvaison Estate Wines,4550 Silverado Trl N,"Vineyards, Brewers, Marketing Consultants, Wineries",Calistoga,US,94515,CA,California,38.575891,-122.549174
Dale Bros. Brewery,2120 Porter Field Way,Brewery,Upland,US,91786,CA,California,,
Darioush Winery,4240 Silverado Trl,"Vineyards, Brewers, Winery, Wineries, Winery and Wine Bar, Wine Bar",Napa,US,94558,CA,California,38.366124,-122.296522
David Bruce Winery,21439 Bear Creek Rd,"Wineries, Vineyards, Brewers",Losgatos,US,95033,CA,California,37.167414,-122.046082
Dbi,3500 Carlin Dr,"Wholesale Wine, Breweries, Wholesale Distribution Centers, Wholesale Foods, Wholesale Beer",Westsacramento,US,95691,CA,California,38.551865,-121.564767
Delectus Winery,908 Enterprise Way,"Wineries, Vineyards, Brewers",Napa,US,94558,CA,California,38.259062,-122.273134
Delta Brands,3700 Finch Rd," alcoholic beverages, manufacturing, Wholesale Refrigerators & Freezers, Wholesale Beverage Coolers, Wholesale Foods, Wholesale Beer, Breweries, Wholesale Importers, Major Appliances",Modesto,US,95357,CA,California,37.624376,-120.92687
Dempsey's Restaurant & Brewery,50 E Washington St,"Restaurant, Brewery",Petaluma,US,94952,CA,California,38.23483058,-122.6391068
Device Brewing Co.,8166 14th Ave,Brewery,Sacramento,US,95826,CA,California,,
Devil Dog Mancave,6166 El Dorado Dr,Brewery,Eastvale,US,92880,CA,California,,
Devil's Canyon Brewing Co,935 Washington St,"Convention & Meeting Facilities & Services, Brewery, Breweries",San Carlos,US,94070,CA,California,37.498736,-122.244453
Diaz Isais,1302 7th St,"breweries & brew pubs, bar & grill restaurants, recreation, food and drink",Sanger,US,93657-2419,CA,California,36.706426,-119.5573
Dionysus Brewing,6201 Shirra Ct,Brewery,Bakersfield,US,93313,CA,California,,
Dirty Donkey Tavern,40487 Highway 41,"water, Bars & Clubs, Bars & Pubs, Pumps Service & Repair, breweries & brew pubs, well, Drilling & Boring Contractors, Septic Tank & Systems-building Cleaning & Repair, bar & grill restaurants, Tanks-fibre Glass Plastics Etc., Water Well Drilling & Pump Contractors, Pumps, drilling, construction, restaurants",Oakhurst,US,"93644-9621, 93644",CA,California,37.333621,-119.64898
Discretion Brewing,2703 41st Ave,"Restaurant, Brewery and Gastropub",Soquel,US,95073,CA,California,36.985977,-121.964935
Diving Dog Brewhouse,1802 Telegraph,"bar, brewery, beer garden",Oakland,US,94612,CA,California,,
Division 23 Brewing,7408 Trade St,"Brewery, Brewery Miramar",San Diego,US,92121,CA,California,,
Dobra Zemlja Winery,12505 Steiner Rd,"Wineries, Brewers",Plymouth,US,95669,CA,California,38.541207,-120.791956
Donum Estate Inc,Po Box 154,"Vineyards,  alcoholic beverages, manufacturing, Beverage Manufacturers, Breweries, Alcoholic Beverages, Wineries, Manufacturing",Sonoma,US,95476,CA,California,38.29186,-122.458037
Dos Desperados Brewery,1241 Linda Vista Dr,"Brewery and Distillery, Brewery, Distillery",San Marcos,US,92078,CA,California,33.1369606,-117.1936645
Double Oak Vineyards & Winery,14510 Blind Shady Rd,"Vineyards, Brewers, Wineries",Nevadacity,US,95959,CA,California,39.340196,-121.056136
Double Springs Brewing Co,8345 Main St,"Tourist Attractions, Mokelumne Hill,  CA, Beverages, Malt Beverages, Brewers, wholesale, manufacturing, food, brewer",Mokelumne Hill,US,95245,CA,California,38.30146,-120.706024
Downey Brewing Co,10924 Paramount Blvd (at 3rd St),"Brewery, Bar, Food",Downey,US,90241,CA,California,33.94455751,-118.1362834
Downey Brewing Company,10924 Paramount Blvd,"Food, Brewery, Bar",Downey,US,90241,CA,California,33.9449,-118.136
Downtown Brewing Co,1108 Pine St,"american restaurant, brewery, Brewers, bar",Pasorobles,US,93446,CA,California,35.626056,-120.688776
Downtown Joe's Brewery & Restaurant,902 Main St,"American Restaurant, Brewery, Bar, American Restaurant, Bar, and Brewery",Napa,US,94559,CA,California,38.29864858,-122.2848802
Drake's Barrel House,1933 Davis St,"Brewery, Beer Garden",San Leandro,US,94577,CA,California,37.714709,-122.179325
Drew Family Cellars,31351 Philo Greenwood Rd,"Vineyards, Brewers, Wineries",Elk,US,95466,CA,California,39.132894,-123.649262
Drunken Marmot Brewing Co,Kirk Dr,brewery,San Jose,US,95124,CA,California,,
Dunbar Brewing,2200 El Camino Real,Brewery and Bar,Santa Margarita,US,93453,CA,California,,
Dunnewood Vineyards & Winery,2399 N State St,"Vineyards, Brewers, Wineries",Ukiah,US,95482,CA,California,39.179874,-123.207684
Dust Bowl Brewing,3100 Spengler Way,Brewers,Turlock,US,95380,CA,California,37.484303,-120.883544
Dust Bowl Brewing Co. Downtown Taproom,200 W Main St,Brewery,Turlock,US,95380,CA,California,,
Dutton Estate Winery,8757 Green Valley Rd,"Beverages, Tourist Information & Attractions, Wholesalers, Brewers, Beverages-Distributors & Bottlers, Winery, Places Of Interest, Wineries, Manufacturers, Liquor Stores, Fruit & Vegetable Growers & Shippers, Wine",Sebastopol,US,95472,CA,California,38.445826,-122.866547
E J Phair Brewing Co,200 E 3rd St,"barbecue, beer & beverages, breweries & brew pubs, pizza, restaurants, Pittsburg Restaurants, American, recreation, food and drink",Pittsburg,US,94565-2212,CA,California,38.032826,-121.880244
"E J Phair Brewing Co, E.j. Phair Brewing Co.",2151 Salvio St,"Restaurant, Restaurants, Pubs, Breweries, Beer & Ale Distributors",Concord,US,94520,CA,California,37.977662,-122.034629
E.j. Malloy's,3411 E Broadway,"Brewery, Pub",Long Beach,US,90803,CA,California,,
E.j. Phair Brewing Co.,300 Cumberland St,Brewery,Pittsburg,US,94565,CA,California,,
Eagle Rock Brewery,3056 Roswell Saint (at Delay Dr),"Bar, Brewery",Los Angeles,US,90065,CA,California,34.11496944,-118.243397
East Cliff Brewing Co,21517 E Cliff Dr,"Brew Pubs, Brewers, Beer & Ale, Brewery, restaurant",Santacruz,US,95062,CA,California,36.964363,-122.010029
Eckert Malting & Brewing Co,2280 Ivy St,Brewers,Chico,US,95928,CA,California,39.713144,-121.823712
Eel River Brewing Co,125 Main St,"Wholesale Beer Dispensing Equipment, Brewers, Drinking Places (Alcoholic Beverages), Beer Garden (Drinking Places)",Scotia,US,95565,CA,California,40.483616,-124.102749
Eight Bridges Brewing Inc,332 Earhart Way,"Beer Homebrewing Equipment & Supplies, Beer & Ale, Brewery, Liquor Stores",Livermore,US,94551,CA,California,37.699013,-121.81321
El Dorado Brewing Co,4384 Harness Tract Rd,"Home & Garden, Home Repair & Improvement, General Contractors, Camino,  CA, Beverages, Malt Beverages, Brewers",Camino,US,95709-9755,CA,California,38.749007,-120.67216
El Dorado Distribution,3299 E Hill St,Brewery,Long Beach,US,90755,CA,California,,
El Segundo Brewing Company,140 Main St,Brewery,El Segundo,US,90245,CA,California,,
El Toro Brewing Co.,17370 Hill Rd,"Brewery, Breweries",Morgan Hill,US,95037,CA,California,37.145748,-121.622529
El Toro Brewing Pub,17605 Monterey St,"Bars, Bars & Clubs, Brew Pubs, Restaurants, Beer & Ale, Breweries, Food & Entertainment, Taverns",Morgan Hill,US,95037,CA,California,37.130477,-121.654892
El Toro Brewpub,17605 Monterey Rd,"Brew Pubs, Restaurants, Brewers",Morganhill,US,95037,CA,California,37.130426,-121.654664
Electric Brewing,41537 Cherry St,Brewery South Murrieta Business Corridor,Murrieta,US,92562,CA,California,,
Elizabeth Street Brewery,798 Elizabeth St,"Brewery Noe Valley, Brewery",San Francisco,US,94114,CA,California,,
Enegren Brewing Co,680 Flinn Ave,Breweries and Wineries,Moorpark,US,93021,CA,California,,
English Ales Brewery,223 Reindollar Ave A,Brewers,Marina,US,93933,CA,California,36.680189,-121.803632
English Ales Brewery & Cafe,223 Reindollar Ave,Brewery,Marina,US,93933,CA,California,36.68020602,-121.8037516
Epidemic Ales,150 Mason Cir,Brewery,Concord,US,94520,CA,California,,
Epiphany Cellars,2963 Grand Ave,"Liquor Stores, Vineyards, Brewers, Wineries",Losolivos,US,93441,CA,California,34.666726,-120.11496
Escape Craft Brewery,721 Nevada St,Brewery,Redlands,US,92373,CA,California,34.06160036,-117.2185874
Estancia Winery,980 Bryant Cyn,"Wineries, Brewers",Soledad,US,93960,CA,California,36.428115,-121.309083
Estes Park Brewery,1746F S Victoria Ave 366,Brewers,Ventura,US,93003,CA,California,34.258418,-119.210847
Extreme Brands Llc,32545 Golden Lantern St,"Beverage Manufacturers, Breweries, Business Services, Other Business Services",Danapoint,US,92629,CA,California,33.472597,-117.697548
Faction Brewing,2501 Monarch St,"brewery, Tourist Information & Attractions, audio, photographic equipment, Brewery Alameda Point, wholesale, Electronics Repair & Rental Shops, Amusement Places & Arcades, Brewery, supply, Home Services & Furnishings",Alameda,US,94501,CA,California,37.78624,-122.30836
Fallbrook Brewing Company,136 N Main Ave,Brewery,Fallbrook,US,92028,CA,California,,
Faultline Brewing Co,1235 Oakmead Parkway (at Lakeside Dr),"Brewery, Sports Bar",Sunnyvale,US,94085-4040,CA,California,37.38760471,-121.9925255
Fawnridge Winery,5560 Fawnridge Rd,"mfg, manufacturing, wholesale, food, Brewers, Wineries, Liquor Stores, Food & Entertainment, Beer & Beverages-wholesale & Distributors",Auburn,US,"95602-9213, 95602",CA,California,38.989357,-121.124775
Feather Falls Brewing Co,3 Alverda Dr,Brewers,Oroville,US,95966,CA,California,39.4666,-121.516408
Feria Maya,1497 Jayken Way,"Beverage Manufacturers, Soft Drinks Retail, Grocery Stores & Supermarkets, Beverage Dispensing Equipment Supplies & Repair, Beverages Retail, Breweries, Wholesale Beverage Dispensing Equipment, Refrigeration Equipment Manufacturers",Chula Vista,US,91911,CA,California,32.600999,-117.081229
Fermentation Settlement,2511 Winchester Blvd,Brewer Equipment Supplies & Services,Campbell,US,95008,CA,California,37.277996,-121.949937
Fermentation Solutions,2507 Winchester Blvd,"Homebrewing, Food & Dining, Hobbies, Recreation, Beverages, Brewer Equipment Supplies & Services, Wine",Campbell,US,95008,CA,California,37.27802,-121.95097
Fernwood Cellars,7137 Redwood Retreat Rd,"Wineries, Brewers",Gilroy,US,95020,CA,California,37.034056,-121.705353
Fess Parker Winery,2643 Industrial Pkwy,"Brewers, Wineries",Santamaria,US,93455,CA,California,34.910989,-120.447801
Fieldbrook Valley Winery,4241 Fieldbrook Rd,"Brewers, Wineries",Mckinleyville,US,95519,CA,California,40.958715,-124.031845
Fieldwork Brewing Company,1160 Sixth St,Brewery,Berkeley,US,94710,CA,California,37.88124561,-122.3021341
Fiftyfifty Brewing Co.,11197 Brockway Rd #,"Brewers, Wineries",Truckee,US,96161,CA,California,39.32183,-120.163241
Figueroa Mountain Brewing Co.,30770 E Russell Ranch Road Suites & F,"Brewery, American Restaurant",Westlake Village,US,91362,CA,California,34.14732,-118.79538
Figueroa Mountain Brewing Company,137 Anacapa St,Brewery and Beer Garden,Santa Barbara,US,93101,CA,California,34.41457978,-119.6908621
Filsinger Vineyards & Winery,39050 De Portola Rd,"Wineries, Vineyards, Brewers",Temecula,US,92592,CA,California,33.531883,-117.015794
Final Draft Brewing Co,1600 California St,Brewers,Redding,US,96001,CA,California,40.582957,-122.391853
Final Draft Brewing Co Llc,1985 Galaxy Way,Brewers,Redding,US,96002,CA,California,40.551069,-122.334374
Firestone Vineyard,5017 Zaca Station Rd,"Vineyards, Brewers, Wineries",Losolivos,US,93441,CA,California,34.686999,-120.155452
Firkin & Fox,1111 I St,"American Restaurant, Brewery, Bar",Modesto,US,95354,CA,California,37.64036527,-120.998199
First Choice Chiropractic Center,5680 Mission Center Rd,"Rehabilitation Chiropractors, Chiropractic Information & Referral Services, Cheese Shops, Grocery Stores & Supermarkets, Supermarket and Grocery Store, Breweries, Beer & Ale Distributors, Emergency Services Chiropractors, Chiropractic Clinics, Beer & Ale Retail, Supermarket and Grocery Store Mission Valley East, Coin & Money Handling Equipment",San Diego,US,92108,CA,California,32.775879,-117.154344
Five Threads Brewing Company,31133 Via Colinas,"Restaurant, Brewery",Westlake Village,US,91362,CA,California,34.15405,-118.80369
Fogbelt Brewing Company,1305 Cleveland Ave,Brewery,Santa Rosa,US,95401,CA,California,,
Fogline Brew Co Llc,1440 Placer St,Brewers,Redding,US,96001,CA,California,40.582268,-122.390547
Food 4 Less,1320 E 30th St,"Supermarket, Grocery Store and Supermarket West Chula Vista, Grocery Store and Supermarket, Cheese Shops, Grocery Stores & Supermarkets, Breweries, Grocery Store, Beer & Ale Distributors, Beer & Ale Retail",National City,US,91950,CA,California,32.660499,-117.085922
Foods Co,1401 Broadway St,"Cheese Shops, Grocery Stores & Supermarkets, Breweries, Grocery Store, Beer & Ale Distributors, Beer & Ale Retail",Redwood City,US,94063,CA,California,37.486928,-122.216804
Foothill Distributing Co,2290 Ivy St,"Food & Dining, Beverages, Breweries",Chico,US,95928,CA,California,39.7134,-121.823
Fort Point Beer Company,644 Old Mason St,Brewery,San Francisco,US,94129,CA,California,,
Fort Point Ferry Building,1 Sausalito,Brewery Financial District,San Francisco,US,,CA,California,,
Four Sons Brewing,18421 Gothard St,Brewery,Huntington Beach,US,92648,CA,California,,
Fox Barrel Cider Co,1213 S Auburn Saint A,"Wholesale Foods, Breweries, Wholesale Beer",Colfax,US,95713,CA,California,39.088721,-120.956137
Foxen Vineyard,7200 Foxen Canyon Rd," alcoholic beverages                                                                            retail, manufacturing, Brewers, Wineries,  restaurants and bars",Santamaria,US,93454,CA,California,34.838943,-120.238136
Franzia,2916 S Reed Ave,"Wineries, Brewers",Sanger,US,93657,CA,California,36.693275,-119.454138
Free Wheel Brewing Co,3736 Florence St,"Beer Homebrewing Equipment & Supplies, Winemaking Equipment & Supplies, Pubs, Brewer Equipment Supplies & Services, Brewery, Beer & Ale, Breweries",Redwood City,US,94063,CA,California,37.478608,-122.186652
Frutarom,790 E Harrison St,"Beverage Manufacturers, Other Chemical Manufacturers, Flavoring Extract Manufacturers, Breweries",Corona,US,92879,CA,California,33.883578,-117.554041
Full Circle Brewing Co,620 F St,"Breweries, Wineries, Wine & Distilled Beverages Retail",Fresno,US,93706,CA,California,36.726885,-119.79077
G V Cellars,1635 Mason Rd,"Wineries, Liquor Stores, Brewers",Fairfield,US,94534,CA,California,38.244127,-122.169429
Gainey Vineyard,3950 E Hwy 246,"Vineyards, Brewers, Wineries",Santaynez,US,93460,CA,California,34.606556,-120.065445
Galante Vineyards,18181 Cachagua Rd,"Wineries, Brewers",Carmelvalley,US,93924,CA,California,36.40179,-121.65831
Galleron Signature Wines,Po Box 2," CA, Food & Dining, Beverages,  and Brandy Spirits, Rutherford, Brewers, Wines, Wineries,  Brandy",Rutherford,US,"94573, 94573-0002",CA,California,38.464576,-122.422658
Garage Brewing Co,29095 Old Town,Breweries,Temecula,US,92590,CA,California,33.486077,-117.144504
"Garage Brewing Co, Garage Brewing Co.",29095 Old Town Temecula,"Brewery, Gastropub, and Pizza Place, Gastropub, Brewery, Pizza Place",Temecula,US,92590,CA,California,,
